[
    {
        "StopName": "高鐵新竹站",
        "Lon": 121.040492,
        "Lat": 24.807182,
        "BusType": 1,
        "RouteName": "觀光1號",
        "Direction": 0,
        "StopSequence": 1
    },
    {
        "StopName": "喜來登站",
        "Lon": 121.029333,
        "Lat": 24.820874,
        "BusType": 1,
        "RouteName": "觀光1號",
        "Direction": 0,
        "StopSequence": 2
    },
    {
        "StopName": "義民廟",
        "Lon": 121.036698,
        "Lat": 24.841868,
        "BusType": 1,
        "RouteName": "觀光1號",
        "Direction": 0,
        "StopSequence": 3
    },
    {
        "StopName": "廣和宮",
        "Lon": 121.0741716,
        "Lat": 24.82784359,
        "BusType": 1,
        "RouteName": "觀光1號",
        "Direction": 0,
        "StopSequence": 4
    },
    {
        "StopName": "新埔宗祠客家文化導覽館",
        "Lon": 121.07926,
        "Lat": 24.82791,
        "BusType": 1,
        "RouteName": "觀光1號",
        "Direction": 0,
        "StopSequence": 5
    },
    {
        "StopName": "新農民市場",
        "Lon": 121.087735,
        "Lat": 24.831313,
        "BusType": 1,
        "RouteName": "觀光1號",
        "Direction": 0,
        "StopSequence": 6
    },
    {
        "StopName": "埤塘窩口",
        "Lon": 121.10626,
        "Lat": 24.851874,
        "BusType": 1,
        "RouteName": "觀光1號",
        "Direction": 0,
        "StopSequence": 7
    },
    {
        "StopName": "金谷農場口",
        "Lon": 121.105393,
        "Lat": 24.855988,
        "BusType": 1,
        "RouteName": "觀光1號",
        "Direction": 0,
        "StopSequence": 8
    },
    {
        "StopName": "鴛鴦池口",
        "Lon": 121.104191,
        "Lat": 24.861639,
        "BusType": 1,
        "RouteName": "觀光1號",
        "Direction": 0,
        "StopSequence": 9
    },
    {
        "StopName": "鴛鴦池口",
        "Lon": 121.104187,
        "Lat": 24.861639,
        "BusType": 1,
        "RouteName": "觀光1號",
        "Direction": 1,
        "StopSequence": 1
    },
    {
        "StopName": "金谷農場口",
        "Lon": 121.105293,
        "Lat": 24.855976,
        "BusType": 1,
        "RouteName": "觀光1號",
        "Direction": 1,
        "StopSequence": 2
    },
    {
        "StopName": "埤塘窩口",
        "Lon": 121.106259,
        "Lat": 24.851872,
        "BusType": 1,
        "RouteName": "觀光1號",
        "Direction": 1,
        "StopSequence": 3
    },
    {
        "StopName": "新農民市場",
        "Lon": 121.087639,
        "Lat": 24.831329,
        "BusType": 1,
        "RouteName": "觀光1號",
        "Direction": 1,
        "StopSequence": 4
    },
    {
        "StopName": "新埔宗祠客家文化導覽館",
        "Lon": 121.079189,
        "Lat": 24.827986,
        "BusType": 1,
        "RouteName": "觀光1號",
        "Direction": 1,
        "StopSequence": 5
    },
    {
        "StopName": "廣和宮",
        "Lon": 121.074624,
        "Lat": 24.828015,
        "BusType": 1,
        "RouteName": "觀光1號",
        "Direction": 1,
        "StopSequence": 6
    },
    {
        "StopName": "義民廟",
        "Lon": 121.036533,
        "Lat": 24.842124,
        "BusType": 1,
        "RouteName": "觀光1號",
        "Direction": 1,
        "StopSequence": 7
    },
    {
        "StopName": "喜來登站",
        "Lon": 121.028996,
        "Lat": 24.821009,
        "BusType": 1,
        "RouteName": "觀光1號",
        "Direction": 1,
        "StopSequence": 8
    },
    {
        "StopName": "高鐵新竹站",
        "Lon": 121.040492,
        "Lat": 24.807182,
        "BusType": 1,
        "RouteName": "觀光1號",
        "Direction": 1,
        "StopSequence": 9
    },
    {
        "StopName": "內灣",
        "Lon": 121.1834,
        "Lat": 24.7034,
        "BusType": 1,
        "RouteName": "竹120",
        "Direction": 0,
        "StopSequence": 1
    },
    {
        "StopName": "尖石鄉公所站",
        "Lon": 121.20165,
        "Lat": 24.704553,
        "BusType": 1,
        "RouteName": "竹120",
        "Direction": 0,
        "StopSequence": 2
    },
    {
        "StopName": "尖石岩",
        "Lon": 121.204424,
        "Lat": 24.707541,
        "BusType": 1,
        "RouteName": "竹120",
        "Direction": 0,
        "StopSequence": 3
    },
    {
        "StopName": "石上湯屋渡假村交叉口",
        "Lon": 121.223058,
        "Lat": 24.730487,
        "BusType": 1,
        "RouteName": "竹120",
        "Direction": 0,
        "StopSequence": 4
    },
    {
        "StopName": "薰衣草森林山腳下",
        "Lon": 121.2303,
        "Lat": 24.7271,
        "BusType": 1,
        "RouteName": "竹120",
        "Direction": 0,
        "StopSequence": 5
    },
    {
        "StopName": "峇里森林溫泉渡假村",
        "Lon": 121.237,
        "Lat": 24.7243,
        "BusType": 1,
        "RouteName": "竹120",
        "Direction": 0,
        "StopSequence": 6
    },
    {
        "StopName": "北得拉曼步道路口",
        "Lon": 121.2491,
        "Lat": 24.7313,
        "BusType": 1,
        "RouteName": "竹120",
        "Direction": 0,
        "StopSequence": 7
    },
    {
        "StopName": "六號花園山腳下",
        "Lon": 121.255,
        "Lat": 24.7268,
        "BusType": 1,
        "RouteName": "竹120",
        "Direction": 0,
        "StopSequence": 8
    },
    {
        "StopName": "煤源",
        "Lon": 121.2693,
        "Lat": 24.7115,
        "BusType": 1,
        "RouteName": "竹120",
        "Direction": 0,
        "StopSequence": 9
    },
    {
        "StopName": "八五山果園山腳下",
        "Lon": 121.2791,
        "Lat": 24.7154,
        "BusType": 1,
        "RouteName": "竹120",
        "Direction": 0,
        "StopSequence": 10
    },
    {
        "StopName": "數碼天空山腳下",
        "Lon": 121.2628,
        "Lat": 24.7048,
        "BusType": 1,
        "RouteName": "竹120",
        "Direction": 0,
        "StopSequence": 11
    },
    {
        "StopName": "凌空廊道",
        "Lon": 121.2625,
        "Lat": 24.6997,
        "BusType": 1,
        "RouteName": "竹120",
        "Direction": 0,
        "StopSequence": 12
    },
    {
        "StopName": "那羅部落香草",
        "Lon": 121.2485,
        "Lat": 24.6798,
        "BusType": 1,
        "RouteName": "竹120",
        "Direction": 0,
        "StopSequence": 13
    },
    {
        "StopName": "那羅文學林",
        "Lon": 121.2398,
        "Lat": 24.6807,
        "BusType": 1,
        "RouteName": "竹120",
        "Direction": 0,
        "StopSequence": 14
    },
    {
        "StopName": "青蛙石",
        "Lon": 121.2288,
        "Lat": 24.6868,
        "BusType": 1,
        "RouteName": "竹120",
        "Direction": 0,
        "StopSequence": 15
    },
    {
        "StopName": "天然谷溫泉",
        "Lon": 121.2221,
        "Lat": 24.6874,
        "BusType": 1,
        "RouteName": "竹120",
        "Direction": 0,
        "StopSequence": 16
    },
    {
        "StopName": "錦屏大橋",
        "Lon": 121.2185,
        "Lat": 24.6877,
        "BusType": 1,
        "RouteName": "竹120",
        "Direction": 0,
        "StopSequence": 17
    },
    {
        "StopName": "錦屏美人湯",
        "Lon": 121.2094,
        "Lat": 24.6715,
        "BusType": 1,
        "RouteName": "竹120",
        "Direction": 0,
        "StopSequence": 18
    },
    {
        "StopName": "梅花國小(甜柿果園)",
        "Lon": 121.1842,
        "Lat": 24.6691,
        "BusType": 1,
        "RouteName": "竹120",
        "Direction": 0,
        "StopSequence": 19
    },
    {
        "StopName": "義梅營區",
        "Lon": 121.1833,
        "Lat": 24.6808,
        "BusType": 1,
        "RouteName": "竹120",
        "Direction": 0,
        "StopSequence": 20
    },
    {
        "StopName": "水茗漾庭園山腳下",
        "Lon": 121.1928,
        "Lat": 24.6971,
        "BusType": 1,
        "RouteName": "竹120",
        "Direction": 0,
        "StopSequence": 21
    },
    {
        "StopName": "義興大橋",
        "Lon": 121.1896,
        "Lat": 24.6972,
        "BusType": 1,
        "RouteName": "竹120",
        "Direction": 0,
        "StopSequence": 22
    },
    {
        "StopName": "北角吊橋",
        "Lon": 121.1974,
        "Lat": 24.7021,
        "BusType": 1,
        "RouteName": "竹120",
        "Direction": 0,
        "StopSequence": 23
    },
    {
        "StopName": "尖石鄉公所站",
        "Lon": 121.20165,
        "Lat": 24.704553,
        "BusType": 1,
        "RouteName": "竹120",
        "Direction": 0,
        "StopSequence": 24
    },
    {
        "StopName": "內灣",
        "Lon": 121.1834,
        "Lat": 24.7034,
        "BusType": 1,
        "RouteName": "竹120",
        "Direction": 0,
        "StopSequence": 25
    },
    {
        "StopName": "內灣",
        "Lon": 121.1834,
        "Lat": 24.7034,
        "BusType": 1,
        "RouteName": "竹120A",
        "Direction": 0,
        "StopSequence": 1
    },
    {
        "StopName": "尖石鄉公所站",
        "Lon": 121.20165,
        "Lat": 24.704553,
        "BusType": 1,
        "RouteName": "竹120A",
        "Direction": 0,
        "StopSequence": 2
    },
    {
        "StopName": "尖石岩",
        "Lon": 121.204424,
        "Lat": 24.707541,
        "BusType": 1,
        "RouteName": "竹120A",
        "Direction": 0,
        "StopSequence": 3
    },
    {
        "StopName": "石上湯屋渡假村交叉口",
        "Lon": 121.223058,
        "Lat": 24.730487,
        "BusType": 1,
        "RouteName": "竹120A",
        "Direction": 0,
        "StopSequence": 4
    },
    {
        "StopName": "薰衣草森林山腳下",
        "Lon": 121.2303,
        "Lat": 24.7271,
        "BusType": 1,
        "RouteName": "竹120A",
        "Direction": 0,
        "StopSequence": 5
    },
    {
        "StopName": "峇里森林溫泉渡假村",
        "Lon": 121.237,
        "Lat": 24.7243,
        "BusType": 1,
        "RouteName": "竹120A",
        "Direction": 0,
        "StopSequence": 6
    },
    {
        "StopName": "北得拉曼步道路口",
        "Lon": 121.2491,
        "Lat": 24.7313,
        "BusType": 1,
        "RouteName": "竹120A",
        "Direction": 0,
        "StopSequence": 7
    },
    {
        "StopName": "六號花園山腳下",
        "Lon": 121.255,
        "Lat": 24.7268,
        "BusType": 1,
        "RouteName": "竹120A",
        "Direction": 0,
        "StopSequence": 8
    },
    {
        "StopName": "煤源",
        "Lon": 121.2693,
        "Lat": 24.7115,
        "BusType": 1,
        "RouteName": "竹120A",
        "Direction": 0,
        "StopSequence": 9
    },
    {
        "StopName": "八五山果園山腳下",
        "Lon": 121.2791,
        "Lat": 24.7154,
        "BusType": 1,
        "RouteName": "竹120A",
        "Direction": 0,
        "StopSequence": 10
    },
    {
        "StopName": "數碼天空山腳下",
        "Lon": 121.2628,
        "Lat": 24.7048,
        "BusType": 1,
        "RouteName": "竹120A",
        "Direction": 0,
        "StopSequence": 11
    },
    {
        "StopName": "凌空廊道",
        "Lon": 121.2625,
        "Lat": 24.6997,
        "BusType": 1,
        "RouteName": "竹120A",
        "Direction": 0,
        "StopSequence": 12
    },
    {
        "StopName": "那羅部落香草",
        "Lon": 121.2485,
        "Lat": 24.6798,
        "BusType": 1,
        "RouteName": "竹120A",
        "Direction": 0,
        "StopSequence": 13
    },
    {
        "StopName": "那羅文學林",
        "Lon": 121.2398,
        "Lat": 24.6807,
        "BusType": 1,
        "RouteName": "竹120A",
        "Direction": 0,
        "StopSequence": 14
    },
    {
        "StopName": "青蛙石",
        "Lon": 121.2288,
        "Lat": 24.6868,
        "BusType": 1,
        "RouteName": "竹120A",
        "Direction": 0,
        "StopSequence": 15
    },
    {
        "StopName": "天然谷溫泉",
        "Lon": 121.2221,
        "Lat": 24.6874,
        "BusType": 1,
        "RouteName": "竹120A",
        "Direction": 0,
        "StopSequence": 16
    },
    {
        "StopName": "錦屏大橋",
        "Lon": 121.2185,
        "Lat": 24.6877,
        "BusType": 1,
        "RouteName": "竹120A",
        "Direction": 0,
        "StopSequence": 17
    },
    {
        "StopName": "綜合運動場",
        "Lon": 121.215,
        "Lat": 24.7022,
        "BusType": 1,
        "RouteName": "竹120A",
        "Direction": 0,
        "StopSequence": 18
    },
    {
        "StopName": "尖石鄉公所站",
        "Lon": 121.20165,
        "Lat": 24.704553,
        "BusType": 1,
        "RouteName": "竹120A",
        "Direction": 0,
        "StopSequence": 19
    },
    {
        "StopName": "內灣",
        "Lon": 121.1834,
        "Lat": 24.7034,
        "BusType": 1,
        "RouteName": "竹120A",
        "Direction": 0,
        "StopSequence": 20
    },
    {
        "StopName": "小金剛商店站",
        "Lon": 121.3062,
        "Lat": 24.6555,
        "BusType": 1,
        "RouteName": "106",
        "Direction": 0,
        "StopSequence": 1
    },
    {
        "StopName": "抬耀十三鄰站",
        "Lon": 121.3504,
        "Lat": 24.6612,
        "BusType": 1,
        "RouteName": "106",
        "Direction": 0,
        "StopSequence": 2
    },
    {
        "StopName": "抬耀十一鄰站",
        "Lon": 121.335,
        "Lat": 24.6544,
        "BusType": 1,
        "RouteName": "106",
        "Direction": 0,
        "StopSequence": 3
    },
    {
        "StopName": "抬耀十二鄰站",
        "Lon": 121.3405,
        "Lat": 24.6505,
        "BusType": 1,
        "RouteName": "106",
        "Direction": 0,
        "StopSequence": 4
    },
    {
        "StopName": "石磊國小站",
        "Lon": 121.3272,
        "Lat": 24.6549,
        "BusType": 1,
        "RouteName": "106",
        "Direction": 0,
        "StopSequence": 5
    },
    {
        "StopName": "石磊九鄰站",
        "Lon": 121.3253,
        "Lat": 24.6523,
        "BusType": 1,
        "RouteName": "106",
        "Direction": 0,
        "StopSequence": 6
    },
    {
        "StopName": "媽媽的店(橋頭)",
        "Lon": 121.3062,
        "Lat": 24.6555,
        "BusType": 1,
        "RouteName": "106",
        "Direction": 0,
        "StopSequence": 7
    },
    {
        "StopName": "玉峰國小站",
        "Lon": 121.3021,
        "Lat": 24.6595,
        "BusType": 1,
        "RouteName": "106",
        "Direction": 0,
        "StopSequence": 8
    },
    {
        "StopName": "河岸營地站",
        "Lon": 121.2999,
        "Lat": 24.6602,
        "BusType": 1,
        "RouteName": "106",
        "Direction": 0,
        "StopSequence": 9
    },
    {
        "StopName": "玉峰二鄰",
        "Lon": 121.281184,
        "Lat": 24.656063,
        "BusType": 1,
        "RouteName": "106",
        "Direction": 0,
        "StopSequence": 10
    },
    {
        "StopName": "玉峰一鄰",
        "Lon": 121.279733,
        "Lat": 24.665956,
        "BusType": 1,
        "RouteName": "106",
        "Direction": 0,
        "StopSequence": 11
    },
    {
        "StopName": "宇老站",
        "Lon": 121.2819,
        "Lat": 24.6676,
        "BusType": 1,
        "RouteName": "106",
        "Direction": 0,
        "StopSequence": 12
    },
    {
        "StopName": "道下站",
        "Lon": 121.2656,
        "Lat": 24.6706,
        "BusType": 1,
        "RouteName": "106",
        "Direction": 0,
        "StopSequence": 13
    },
    {
        "StopName": "尖石鄉公所站",
        "Lon": 121.201769,
        "Lat": 24.704631,
        "BusType": 1,
        "RouteName": "106",
        "Direction": 0,
        "StopSequence": 14
    },
    {
        "StopName": "內灣大橋站",
        "Lon": 121.183376,
        "Lat": 24.703449,
        "BusType": 1,
        "RouteName": "106",
        "Direction": 0,
        "StopSequence": 15
    },
    {
        "StopName": "內灣大橋站",
        "Lon": 121.183376,
        "Lat": 24.703449,
        "BusType": 1,
        "RouteName": "106",
        "Direction": 1,
        "StopSequence": 1
    },
    {
        "StopName": "尖石鄉公所站",
        "Lon": 121.201769,
        "Lat": 24.704631,
        "BusType": 1,
        "RouteName": "106",
        "Direction": 1,
        "StopSequence": 2
    },
    {
        "StopName": "道下站",
        "Lon": 121.2656,
        "Lat": 24.6706,
        "BusType": 1,
        "RouteName": "106",
        "Direction": 1,
        "StopSequence": 3
    },
    {
        "StopName": "宇老站",
        "Lon": 121.2819,
        "Lat": 24.6676,
        "BusType": 1,
        "RouteName": "106",
        "Direction": 1,
        "StopSequence": 4
    },
    {
        "StopName": "玉峰一鄰",
        "Lon": 121.279733,
        "Lat": 24.665956,
        "BusType": 1,
        "RouteName": "106",
        "Direction": 1,
        "StopSequence": 5
    },
    {
        "StopName": "玉峰二鄰",
        "Lon": 121.281184,
        "Lat": 24.656063,
        "BusType": 1,
        "RouteName": "106",
        "Direction": 1,
        "StopSequence": 6
    },
    {
        "StopName": "河岸營地站",
        "Lon": 121.2999,
        "Lat": 24.6602,
        "BusType": 1,
        "RouteName": "106",
        "Direction": 1,
        "StopSequence": 7
    },
    {
        "StopName": "玉峰國小站",
        "Lon": 121.3021,
        "Lat": 24.6595,
        "BusType": 1,
        "RouteName": "106",
        "Direction": 1,
        "StopSequence": 8
    },
    {
        "StopName": "媽媽的店(橋頭)",
        "Lon": 121.3062,
        "Lat": 24.6555,
        "BusType": 1,
        "RouteName": "106",
        "Direction": 1,
        "StopSequence": 9
    },
    {
        "StopName": "石磊九鄰站",
        "Lon": 121.3253,
        "Lat": 24.6523,
        "BusType": 1,
        "RouteName": "106",
        "Direction": 1,
        "StopSequence": 10
    },
    {
        "StopName": "石磊國小站",
        "Lon": 121.3272,
        "Lat": 24.6549,
        "BusType": 1,
        "RouteName": "106",
        "Direction": 1,
        "StopSequence": 11
    },
    {
        "StopName": "抬耀十二鄰站",
        "Lon": 121.3405,
        "Lat": 24.6505,
        "BusType": 1,
        "RouteName": "106",
        "Direction": 1,
        "StopSequence": 12
    },
    {
        "StopName": "抬耀十一鄰站",
        "Lon": 121.335,
        "Lat": 24.6544,
        "BusType": 1,
        "RouteName": "106",
        "Direction": 1,
        "StopSequence": 13
    },
    {
        "StopName": "抬耀十三鄰站",
        "Lon": 121.3504,
        "Lat": 24.6612,
        "BusType": 1,
        "RouteName": "106",
        "Direction": 1,
        "StopSequence": 14
    },
    {
        "StopName": "小金剛商店站",
        "Lon": 121.3062,
        "Lat": 24.6555,
        "BusType": 1,
        "RouteName": "106",
        "Direction": 1,
        "StopSequence": 15
    },
    {
        "StopName": "榮民講習所",
        "Lon": 121.01382,
        "Lat": 24.85778,
        "BusType": 1,
        "RouteName": "快捷5號",
        "Direction": 0,
        "StopSequence": 1
    },
    {
        "StopName": "新竹鄉城",
        "Lon": 121.00771,
        "Lat": 24.86063,
        "BusType": 1,
        "RouteName": "快捷5號",
        "Direction": 0,
        "StopSequence": 2
    },
    {
        "StopName": "榮光三民路口",
        "Lon": 120.9976837,
        "Lat": 24.8658754,
        "BusType": 1,
        "RouteName": "快捷5號",
        "Direction": 0,
        "StopSequence": 3
    },
    {
        "StopName": "新豐後火車站",
        "Lon": 120.9970409,
        "Lat": 24.86859173,
        "BusType": 1,
        "RouteName": "快捷5號",
        "Direction": 0,
        "StopSequence": 4
    },
    {
        "StopName": "花王公司",
        "Lon": 121.0045242,
        "Lat": 24.86453789,
        "BusType": 1,
        "RouteName": "快捷5號",
        "Direction": 0,
        "StopSequence": 5
    },
    {
        "StopName": "管理中心",
        "Lon": 121.0097603,
        "Lat": 24.87196673,
        "BusType": 1,
        "RouteName": "快捷5號",
        "Direction": 0,
        "StopSequence": 6
    },
    {
        "StopName": "中華公園",
        "Lon": 121.0133015,
        "Lat": 24.87164487,
        "BusType": 1,
        "RouteName": "快捷5號",
        "Direction": 0,
        "StopSequence": 7
    },
    {
        "StopName": "新工派出所",
        "Lon": 121.016336,
        "Lat": 24.871284,
        "BusType": 1,
        "RouteName": "快捷5號",
        "Direction": 0,
        "StopSequence": 8
    },
    {
        "StopName": "光復工業二路口",
        "Lon": 121.0229806,
        "Lat": 24.86793513,
        "BusType": 1,
        "RouteName": "快捷5號",
        "Direction": 0,
        "StopSequence": 9
    },
    {
        "StopName": "光復東路安宅七街口",
        "Lon": 121.027534,
        "Lat": 24.869423,
        "BusType": 1,
        "RouteName": "快捷5號",
        "Direction": 0,
        "StopSequence": 10
    },
    {
        "StopName": "光復東路永順街口",
        "Lon": 121.0339072,
        "Lat": 24.87058719,
        "BusType": 1,
        "RouteName": "快捷5號",
        "Direction": 0,
        "StopSequence": 11
    },
    {
        "StopName": "清泉堂",
        "Lon": 121.0328744,
        "Lat": 24.86724699,
        "BusType": 1,
        "RouteName": "快捷5號",
        "Direction": 0,
        "StopSequence": 12
    },
    {
        "StopName": "中正堂",
        "Lon": 121.0305739,
        "Lat": 24.8658765,
        "BusType": 1,
        "RouteName": "快捷5號",
        "Direction": 0,
        "StopSequence": 13
    },
    {
        "StopName": "郵局前",
        "Lon": 121.0258185,
        "Lat": 24.86279482,
        "BusType": 1,
        "RouteName": "快捷5號",
        "Direction": 0,
        "StopSequence": 14
    },
    {
        "StopName": "天主堂",
        "Lon": 121.0223249,
        "Lat": 24.86005741,
        "BusType": 1,
        "RouteName": "快捷5號",
        "Direction": 0,
        "StopSequence": 15
    },
    {
        "StopName": "訓練中心",
        "Lon": 121.0199923,
        "Lat": 24.85805566,
        "BusType": 1,
        "RouteName": "快捷5號",
        "Direction": 0,
        "StopSequence": 16
    },
    {
        "StopName": "大東山休閒農園",
        "Lon": 121.0220188,
        "Lat": 24.85268444,
        "BusType": 1,
        "RouteName": "快捷5號",
        "Direction": 0,
        "StopSequence": 17
    },
    {
        "StopName": "仰德園",
        "Lon": 121.027075,
        "Lat": 24.85104,
        "BusType": 1,
        "RouteName": "快捷5號",
        "Direction": 0,
        "StopSequence": 18
    },
    {
        "StopName": "下排子",
        "Lon": 121.0285971,
        "Lat": 24.84681323,
        "BusType": 1,
        "RouteName": "快捷5號",
        "Direction": 0,
        "StopSequence": 19
    },
    {
        "StopName": "下枋寮",
        "Lon": 121.0305716,
        "Lat": 24.84568505,
        "BusType": 1,
        "RouteName": "快捷5號",
        "Direction": 0,
        "StopSequence": 20
    },
    {
        "StopName": "新瓦屋",
        "Lon": 121.0338033,
        "Lat": 24.844153,
        "BusType": 1,
        "RouteName": "快捷5號",
        "Direction": 0,
        "StopSequence": 21
    },
    {
        "StopName": "義民廟",
        "Lon": 121.035378,
        "Lat": 24.843433,
        "BusType": 1,
        "RouteName": "快捷5號",
        "Direction": 0,
        "StopSequence": 22
    },
    {
        "StopName": "百木達景觀休閒花市",
        "Lon": 121.0365868,
        "Lat": 24.84213213,
        "BusType": 1,
        "RouteName": "快捷5號",
        "Direction": 0,
        "StopSequence": 23
    },
    {
        "StopName": "褒忠自強北路口",
        "Lon": 121.035972,
        "Lat": 24.829985,
        "BusType": 1,
        "RouteName": "快捷5號",
        "Direction": 0,
        "StopSequence": 24
    },
    {
        "StopName": "蓮華寺",
        "Lon": 121.034964,
        "Lat": 24.827879,
        "BusType": 1,
        "RouteName": "快捷5號",
        "Direction": 0,
        "StopSequence": 25
    },
    {
        "StopName": "安興國小",
        "Lon": 121.033442,
        "Lat": 24.826276,
        "BusType": 1,
        "RouteName": "快捷5號",
        "Direction": 0,
        "StopSequence": 26
    },
    {
        "StopName": "自強北路勝利八街",
        "Lon": 121.03169,
        "Lat": 24.82426,
        "BusType": 1,
        "RouteName": "快捷5號",
        "Direction": 0,
        "StopSequence": 27
    },
    {
        "StopName": "六家派出所站",
        "Lon": 121.030095,
        "Lat": 24.822281,
        "BusType": 1,
        "RouteName": "快捷5號",
        "Direction": 0,
        "StopSequence": 28
    },
    {
        "StopName": "喜來登飯店",
        "Lon": 121.028755,
        "Lat": 24.819239,
        "BusType": 1,
        "RouteName": "快捷5號",
        "Direction": 0,
        "StopSequence": 29
    },
    {
        "StopName": "特殊教育學校站",
        "Lon": 121.033305,
        "Lat": 24.813884,
        "BusType": 1,
        "RouteName": "快捷5號",
        "Direction": 0,
        "StopSequence": 30
    },
    {
        "StopName": "高鐵新竹站",
        "Lon": 121.040492,
        "Lat": 24.807182,
        "BusType": 1,
        "RouteName": "快捷5號",
        "Direction": 0,
        "StopSequence": 31
    },
    {
        "StopName": "高鐵新竹站",
        "Lon": 121.040492,
        "Lat": 24.807182,
        "BusType": 1,
        "RouteName": "快捷5號",
        "Direction": 1,
        "StopSequence": 1
    },
    {
        "StopName": "特殊教育學校站",
        "Lon": 121.0327218,
        "Lat": 24.81512035,
        "BusType": 1,
        "RouteName": "快捷5號",
        "Direction": 1,
        "StopSequence": 2
    },
    {
        "StopName": "喜來登飯店",
        "Lon": 121.0292712,
        "Lat": 24.82090895,
        "BusType": 1,
        "RouteName": "快捷5號",
        "Direction": 1,
        "StopSequence": 3
    },
    {
        "StopName": "六家派出所站",
        "Lon": 121.03042,
        "Lat": 24.822303,
        "BusType": 1,
        "RouteName": "快捷5號",
        "Direction": 1,
        "StopSequence": 4
    },
    {
        "StopName": "自強北路勝利八街",
        "Lon": 121.03195,
        "Lat": 24.82407,
        "BusType": 1,
        "RouteName": "快捷5號",
        "Direction": 1,
        "StopSequence": 5
    },
    {
        "StopName": "安興國小",
        "Lon": 121.033156,
        "Lat": 24.825586,
        "BusType": 1,
        "RouteName": "快捷5號",
        "Direction": 1,
        "StopSequence": 6
    },
    {
        "StopName": "蓮華寺",
        "Lon": 121.035366,
        "Lat": 24.827931,
        "BusType": 1,
        "RouteName": "快捷5號",
        "Direction": 1,
        "StopSequence": 7
    },
    {
        "StopName": "褒忠自強北路口",
        "Lon": 121.036395,
        "Lat": 24.831173,
        "BusType": 1,
        "RouteName": "快捷5號",
        "Direction": 1,
        "StopSequence": 8
    },
    {
        "StopName": "百木達景觀休閒花市",
        "Lon": 121.0366591,
        "Lat": 24.84192022,
        "BusType": 1,
        "RouteName": "快捷5號",
        "Direction": 1,
        "StopSequence": 9
    },
    {
        "StopName": "義民廟",
        "Lon": 121.035332,
        "Lat": 24.843523,
        "BusType": 1,
        "RouteName": "快捷5號",
        "Direction": 1,
        "StopSequence": 10
    },
    {
        "StopName": "新瓦屋",
        "Lon": 121.03348,
        "Lat": 24.84463,
        "BusType": 1,
        "RouteName": "快捷5號",
        "Direction": 1,
        "StopSequence": 11
    },
    {
        "StopName": "下枋寮",
        "Lon": 121.030946,
        "Lat": 24.84549142,
        "BusType": 1,
        "RouteName": "快捷5號",
        "Direction": 1,
        "StopSequence": 12
    },
    {
        "StopName": "下排子",
        "Lon": 121.0286421,
        "Lat": 24.84687503,
        "BusType": 1,
        "RouteName": "快捷5號",
        "Direction": 1,
        "StopSequence": 13
    },
    {
        "StopName": "仰德園",
        "Lon": 121.026961,
        "Lat": 24.851156,
        "BusType": 1,
        "RouteName": "快捷5號",
        "Direction": 1,
        "StopSequence": 14
    },
    {
        "StopName": "大東山休閒農園",
        "Lon": 121.0222168,
        "Lat": 24.85275254,
        "BusType": 1,
        "RouteName": "快捷5號",
        "Direction": 1,
        "StopSequence": 15
    },
    {
        "StopName": "訓練中心",
        "Lon": 121.0200472,
        "Lat": 24.85799646,
        "BusType": 1,
        "RouteName": "快捷5號",
        "Direction": 1,
        "StopSequence": 16
    },
    {
        "StopName": "天主堂",
        "Lon": 121.0224045,
        "Lat": 24.86002394,
        "BusType": 1,
        "RouteName": "快捷5號",
        "Direction": 1,
        "StopSequence": 17
    },
    {
        "StopName": "郵局前",
        "Lon": 121.0259856,
        "Lat": 24.86282042,
        "BusType": 1,
        "RouteName": "快捷5號",
        "Direction": 1,
        "StopSequence": 18
    },
    {
        "StopName": "中正堂",
        "Lon": 121.03058,
        "Lat": 24.86577,
        "BusType": 1,
        "RouteName": "快捷5號",
        "Direction": 1,
        "StopSequence": 19
    },
    {
        "StopName": "清泉堂",
        "Lon": 121.0329346,
        "Lat": 24.86716213,
        "BusType": 1,
        "RouteName": "快捷5號",
        "Direction": 1,
        "StopSequence": 20
    },
    {
        "StopName": "光復東路永順街口",
        "Lon": 121.0340259,
        "Lat": 24.87040066,
        "BusType": 1,
        "RouteName": "快捷5號",
        "Direction": 1,
        "StopSequence": 21
    },
    {
        "StopName": "光復東路安宅七街口",
        "Lon": 121.027342,
        "Lat": 24.869432,
        "BusType": 1,
        "RouteName": "快捷5號",
        "Direction": 1,
        "StopSequence": 22
    },
    {
        "StopName": "光復工業二路口",
        "Lon": 121.023085,
        "Lat": 24.867959,
        "BusType": 1,
        "RouteName": "快捷5號",
        "Direction": 1,
        "StopSequence": 23
    },
    {
        "StopName": "新工派出所",
        "Lon": 121.016289,
        "Lat": 24.871343,
        "BusType": 1,
        "RouteName": "快捷5號",
        "Direction": 1,
        "StopSequence": 24
    },
    {
        "StopName": "中華公園",
        "Lon": 121.0129251,
        "Lat": 24.87194073,
        "BusType": 1,
        "RouteName": "快捷5號",
        "Direction": 1,
        "StopSequence": 25
    },
    {
        "StopName": "管理中心",
        "Lon": 121.009673,
        "Lat": 24.87201,
        "BusType": 1,
        "RouteName": "快捷5號",
        "Direction": 1,
        "StopSequence": 26
    },
    {
        "StopName": "花王公司",
        "Lon": 121.0044408,
        "Lat": 24.86461204,
        "BusType": 1,
        "RouteName": "快捷5號",
        "Direction": 1,
        "StopSequence": 27
    },
    {
        "StopName": "新豐後火車站",
        "Lon": 120.997068,
        "Lat": 24.868622,
        "BusType": 1,
        "RouteName": "快捷5號",
        "Direction": 1,
        "StopSequence": 28
    },
    {
        "StopName": "榮光三民路口",
        "Lon": 120.9976596,
        "Lat": 24.86568682,
        "BusType": 1,
        "RouteName": "快捷5號",
        "Direction": 1,
        "StopSequence": 29
    },
    {
        "StopName": "新竹鄉城",
        "Lon": 121.00759,
        "Lat": 24.86051,
        "BusType": 1,
        "RouteName": "快捷5號",
        "Direction": 1,
        "StopSequence": 30
    },
    {
        "StopName": "榮民講習所",
        "Lon": 121.013763,
        "Lat": 24.857744,
        "BusType": 1,
        "RouteName": "快捷5號",
        "Direction": 1,
        "StopSequence": 31
    },
    {
        "StopName": "榮民講習所",
        "Lon": 121.01382,
        "Lat": 24.85778,
        "BusType": 1,
        "RouteName": "快捷5號A",
        "Direction": 0,
        "StopSequence": 1
    },
    {
        "StopName": "新竹鄉城",
        "Lon": 121.00771,
        "Lat": 24.86063,
        "BusType": 1,
        "RouteName": "快捷5號A",
        "Direction": 0,
        "StopSequence": 2
    },
    {
        "StopName": "榮光三民路口",
        "Lon": 120.9976837,
        "Lat": 24.8658754,
        "BusType": 1,
        "RouteName": "快捷5號A",
        "Direction": 0,
        "StopSequence": 3
    },
    {
        "StopName": "明新科大",
        "Lon": 120.991008,
        "Lat": 24.865424,
        "BusType": 1,
        "RouteName": "快捷5號A",
        "Direction": 0,
        "StopSequence": 4
    },
    {
        "StopName": "新豐後火車站",
        "Lon": 120.9970409,
        "Lat": 24.86859173,
        "BusType": 1,
        "RouteName": "快捷5號A",
        "Direction": 0,
        "StopSequence": 5
    },
    {
        "StopName": "花王公司",
        "Lon": 121.0045242,
        "Lat": 24.86453789,
        "BusType": 1,
        "RouteName": "快捷5號A",
        "Direction": 0,
        "StopSequence": 6
    },
    {
        "StopName": "管理中心",
        "Lon": 121.0097603,
        "Lat": 24.87196673,
        "BusType": 1,
        "RouteName": "快捷5號A",
        "Direction": 0,
        "StopSequence": 7
    },
    {
        "StopName": "中華公園",
        "Lon": 121.0133015,
        "Lat": 24.87164487,
        "BusType": 1,
        "RouteName": "快捷5號A",
        "Direction": 0,
        "StopSequence": 8
    },
    {
        "StopName": "新工派出所",
        "Lon": 121.016336,
        "Lat": 24.871284,
        "BusType": 1,
        "RouteName": "快捷5號A",
        "Direction": 0,
        "StopSequence": 9
    },
    {
        "StopName": "光復工業二路口",
        "Lon": 121.0229806,
        "Lat": 24.86793513,
        "BusType": 1,
        "RouteName": "快捷5號A",
        "Direction": 0,
        "StopSequence": 10
    },
    {
        "StopName": "光復東路安宅七街口",
        "Lon": 121.027534,
        "Lat": 24.869423,
        "BusType": 1,
        "RouteName": "快捷5號A",
        "Direction": 0,
        "StopSequence": 11
    },
    {
        "StopName": "光復東路永順街口",
        "Lon": 121.0339072,
        "Lat": 24.87058719,
        "BusType": 1,
        "RouteName": "快捷5號A",
        "Direction": 0,
        "StopSequence": 12
    },
    {
        "StopName": "清泉堂",
        "Lon": 121.0328744,
        "Lat": 24.86724699,
        "BusType": 1,
        "RouteName": "快捷5號A",
        "Direction": 0,
        "StopSequence": 13
    },
    {
        "StopName": "中正堂",
        "Lon": 121.0305739,
        "Lat": 24.8658765,
        "BusType": 1,
        "RouteName": "快捷5號A",
        "Direction": 0,
        "StopSequence": 14
    },
    {
        "StopName": "郵局前",
        "Lon": 121.0258185,
        "Lat": 24.86279482,
        "BusType": 1,
        "RouteName": "快捷5號A",
        "Direction": 0,
        "StopSequence": 15
    },
    {
        "StopName": "天主堂",
        "Lon": 121.0223249,
        "Lat": 24.86005741,
        "BusType": 1,
        "RouteName": "快捷5號A",
        "Direction": 0,
        "StopSequence": 16
    },
    {
        "StopName": "訓練中心",
        "Lon": 121.0199923,
        "Lat": 24.85805566,
        "BusType": 1,
        "RouteName": "快捷5號A",
        "Direction": 0,
        "StopSequence": 17
    },
    {
        "StopName": "大東山休閒農園",
        "Lon": 121.0220188,
        "Lat": 24.85268444,
        "BusType": 1,
        "RouteName": "快捷5號A",
        "Direction": 0,
        "StopSequence": 18
    },
    {
        "StopName": "仰德園",
        "Lon": 121.027075,
        "Lat": 24.85104,
        "BusType": 1,
        "RouteName": "快捷5號A",
        "Direction": 0,
        "StopSequence": 19
    },
    {
        "StopName": "下排子",
        "Lon": 121.0285971,
        "Lat": 24.84681323,
        "BusType": 1,
        "RouteName": "快捷5號A",
        "Direction": 0,
        "StopSequence": 20
    },
    {
        "StopName": "下枋寮",
        "Lon": 121.0305716,
        "Lat": 24.84568505,
        "BusType": 1,
        "RouteName": "快捷5號A",
        "Direction": 0,
        "StopSequence": 21
    },
    {
        "StopName": "新瓦屋",
        "Lon": 121.0338033,
        "Lat": 24.844153,
        "BusType": 1,
        "RouteName": "快捷5號A",
        "Direction": 0,
        "StopSequence": 22
    },
    {
        "StopName": "義民廟",
        "Lon": 121.035378,
        "Lat": 24.843433,
        "BusType": 1,
        "RouteName": "快捷5號A",
        "Direction": 0,
        "StopSequence": 23
    },
    {
        "StopName": "百木達景觀休閒花市",
        "Lon": 121.0365868,
        "Lat": 24.84213213,
        "BusType": 1,
        "RouteName": "快捷5號A",
        "Direction": 0,
        "StopSequence": 24
    },
    {
        "StopName": "褒忠自強北路口",
        "Lon": 121.035972,
        "Lat": 24.829985,
        "BusType": 1,
        "RouteName": "快捷5號A",
        "Direction": 0,
        "StopSequence": 25
    },
    {
        "StopName": "蓮華寺",
        "Lon": 121.034964,
        "Lat": 24.827879,
        "BusType": 1,
        "RouteName": "快捷5號A",
        "Direction": 0,
        "StopSequence": 26
    },
    {
        "StopName": "安興國小",
        "Lon": 121.033442,
        "Lat": 24.826276,
        "BusType": 1,
        "RouteName": "快捷5號A",
        "Direction": 0,
        "StopSequence": 27
    },
    {
        "StopName": "自強北路勝利八街",
        "Lon": 121.03169,
        "Lat": 24.82426,
        "BusType": 1,
        "RouteName": "快捷5號A",
        "Direction": 0,
        "StopSequence": 28
    },
    {
        "StopName": "六家派出所站",
        "Lon": 121.030095,
        "Lat": 24.822281,
        "BusType": 1,
        "RouteName": "快捷5號A",
        "Direction": 0,
        "StopSequence": 29
    },
    {
        "StopName": "喜來登飯店",
        "Lon": 121.028755,
        "Lat": 24.819239,
        "BusType": 1,
        "RouteName": "快捷5號A",
        "Direction": 0,
        "StopSequence": 30
    },
    {
        "StopName": "特殊教育學校站",
        "Lon": 121.033305,
        "Lat": 24.813884,
        "BusType": 1,
        "RouteName": "快捷5號A",
        "Direction": 0,
        "StopSequence": 31
    },
    {
        "StopName": "高鐵新竹站",
        "Lon": 121.040492,
        "Lat": 24.807182,
        "BusType": 1,
        "RouteName": "快捷5號A",
        "Direction": 0,
        "StopSequence": 32
    },
    {
        "StopName": "高鐵新竹站",
        "Lon": 121.040492,
        "Lat": 24.807182,
        "BusType": 1,
        "RouteName": "快捷5號A",
        "Direction": 1,
        "StopSequence": 1
    },
    {
        "StopName": "特殊教育學校站",
        "Lon": 121.0327218,
        "Lat": 24.81512035,
        "BusType": 1,
        "RouteName": "快捷5號A",
        "Direction": 1,
        "StopSequence": 2
    },
    {
        "StopName": "喜來登飯店",
        "Lon": 121.0292712,
        "Lat": 24.82090895,
        "BusType": 1,
        "RouteName": "快捷5號A",
        "Direction": 1,
        "StopSequence": 3
    },
    {
        "StopName": "六家派出所站",
        "Lon": 121.03042,
        "Lat": 24.822303,
        "BusType": 1,
        "RouteName": "快捷5號A",
        "Direction": 1,
        "StopSequence": 4
    },
    {
        "StopName": "自強北路勝利八街",
        "Lon": 121.03195,
        "Lat": 24.82407,
        "BusType": 1,
        "RouteName": "快捷5號A",
        "Direction": 1,
        "StopSequence": 5
    },
    {
        "StopName": "安興國小",
        "Lon": 121.033156,
        "Lat": 24.825586,
        "BusType": 1,
        "RouteName": "快捷5號A",
        "Direction": 1,
        "StopSequence": 6
    },
    {
        "StopName": "蓮華寺",
        "Lon": 121.035366,
        "Lat": 24.827931,
        "BusType": 1,
        "RouteName": "快捷5號A",
        "Direction": 1,
        "StopSequence": 7
    },
    {
        "StopName": "褒忠自強北路口",
        "Lon": 121.036394612268,
        "Lat": 24.8311730417912,
        "BusType": 1,
        "RouteName": "快捷5號A",
        "Direction": 1,
        "StopSequence": 8
    },
    {
        "StopName": "百木達景觀休閒花市",
        "Lon": 121.0366591,
        "Lat": 24.84192022,
        "BusType": 1,
        "RouteName": "快捷5號A",
        "Direction": 1,
        "StopSequence": 9
    },
    {
        "StopName": "義民廟",
        "Lon": 121.035332,
        "Lat": 24.843523,
        "BusType": 1,
        "RouteName": "快捷5號A",
        "Direction": 1,
        "StopSequence": 10
    },
    {
        "StopName": "新瓦屋",
        "Lon": 121.03348,
        "Lat": 24.84463,
        "BusType": 1,
        "RouteName": "快捷5號A",
        "Direction": 1,
        "StopSequence": 11
    },
    {
        "StopName": "下枋寮",
        "Lon": 121.030946,
        "Lat": 24.84549142,
        "BusType": 1,
        "RouteName": "快捷5號A",
        "Direction": 1,
        "StopSequence": 12
    },
    {
        "StopName": "下排子",
        "Lon": 121.0286421,
        "Lat": 24.84687503,
        "BusType": 1,
        "RouteName": "快捷5號A",
        "Direction": 1,
        "StopSequence": 13
    },
    {
        "StopName": "仰德園",
        "Lon": 121.026961,
        "Lat": 24.851156,
        "BusType": 1,
        "RouteName": "快捷5號A",
        "Direction": 1,
        "StopSequence": 14
    },
    {
        "StopName": "大東山休閒農園",
        "Lon": 121.0222168,
        "Lat": 24.85275254,
        "BusType": 1,
        "RouteName": "快捷5號A",
        "Direction": 1,
        "StopSequence": 15
    },
    {
        "StopName": "訓練中心",
        "Lon": 121.0200472,
        "Lat": 24.85799646,
        "BusType": 1,
        "RouteName": "快捷5號A",
        "Direction": 1,
        "StopSequence": 16
    },
    {
        "StopName": "天主堂",
        "Lon": 121.0224045,
        "Lat": 24.86002394,
        "BusType": 1,
        "RouteName": "快捷5號A",
        "Direction": 1,
        "StopSequence": 17
    },
    {
        "StopName": "郵局前",
        "Lon": 121.0259856,
        "Lat": 24.86282042,
        "BusType": 1,
        "RouteName": "快捷5號A",
        "Direction": 1,
        "StopSequence": 18
    },
    {
        "StopName": "中正堂",
        "Lon": 121.03058,
        "Lat": 24.86577,
        "BusType": 1,
        "RouteName": "快捷5號A",
        "Direction": 1,
        "StopSequence": 19
    },
    {
        "StopName": "清泉堂",
        "Lon": 121.0329346,
        "Lat": 24.86716213,
        "BusType": 1,
        "RouteName": "快捷5號A",
        "Direction": 1,
        "StopSequence": 20
    },
    {
        "StopName": "光復東路永順街口",
        "Lon": 121.0340259,
        "Lat": 24.87040066,
        "BusType": 1,
        "RouteName": "快捷5號A",
        "Direction": 1,
        "StopSequence": 21
    },
    {
        "StopName": "光復東路安宅七街口",
        "Lon": 121.027342,
        "Lat": 24.869432,
        "BusType": 1,
        "RouteName": "快捷5號A",
        "Direction": 1,
        "StopSequence": 22
    },
    {
        "StopName": "光復工業二路口",
        "Lon": 121.023085,
        "Lat": 24.867959,
        "BusType": 1,
        "RouteName": "快捷5號A",
        "Direction": 1,
        "StopSequence": 23
    },
    {
        "StopName": "新工派出所",
        "Lon": 121.016289,
        "Lat": 24.871343,
        "BusType": 1,
        "RouteName": "快捷5號A",
        "Direction": 1,
        "StopSequence": 24
    },
    {
        "StopName": "中華公園",
        "Lon": 121.0129251,
        "Lat": 24.87194073,
        "BusType": 1,
        "RouteName": "快捷5號A",
        "Direction": 1,
        "StopSequence": 25
    },
    {
        "StopName": "管理中心",
        "Lon": 121.009673,
        "Lat": 24.87201,
        "BusType": 1,
        "RouteName": "快捷5號A",
        "Direction": 1,
        "StopSequence": 26
    },
    {
        "StopName": "花王公司",
        "Lon": 121.0044408,
        "Lat": 24.86461204,
        "BusType": 1,
        "RouteName": "快捷5號A",
        "Direction": 1,
        "StopSequence": 27
    },
    {
        "StopName": "新豐後火車站",
        "Lon": 120.997068,
        "Lat": 24.868622,
        "BusType": 1,
        "RouteName": "快捷5號A",
        "Direction": 1,
        "StopSequence": 28
    },
    {
        "StopName": "明新科大",
        "Lon": 120.991008,
        "Lat": 24.865424,
        "BusType": 1,
        "RouteName": "快捷5號A",
        "Direction": 1,
        "StopSequence": 29
    },
    {
        "StopName": "榮光三民路口",
        "Lon": 120.9976596,
        "Lat": 24.86568682,
        "BusType": 1,
        "RouteName": "快捷5號A",
        "Direction": 1,
        "StopSequence": 30
    },
    {
        "StopName": "新竹鄉城",
        "Lon": 121.00759,
        "Lat": 24.86051,
        "BusType": 1,
        "RouteName": "快捷5號A",
        "Direction": 1,
        "StopSequence": 31
    },
    {
        "StopName": "榮民講習所",
        "Lon": 121.013763,
        "Lat": 24.857744,
        "BusType": 1,
        "RouteName": "快捷5號A",
        "Direction": 1,
        "StopSequence": 32
    },
    {
        "StopName": "獅山",
        "Lon": 121.02294,
        "Lat": 24.65595,
        "BusType": 1,
        "RouteName": "醫專2號",
        "Direction": 0,
        "StopSequence": 1
    },
    {
        "StopName": "峨眉",
        "Lon": 121.01979,
        "Lat": 24.68866,
        "BusType": 1,
        "RouteName": "醫專2號",
        "Direction": 0,
        "StopSequence": 2
    },
    {
        "StopName": "峨眉衛生所",
        "Lon": 121.02151,
        "Lat": 24.68854,
        "BusType": 1,
        "RouteName": "醫專2號",
        "Direction": 0,
        "StopSequence": 3
    },
    {
        "StopName": "中興",
        "Lon": 121.03204,
        "Lat": 24.6923,
        "BusType": 1,
        "RouteName": "醫專2號",
        "Direction": 0,
        "StopSequence": 4
    },
    {
        "StopName": "北埔",
        "Lon": 121.057,
        "Lat": 24.70073,
        "BusType": 1,
        "RouteName": "醫專2號",
        "Direction": 0,
        "StopSequence": 5
    },
    {
        "StopName": "臺大醫院竹東分院",
        "Lon": 121.0943803,
        "Lat": 24.7187209,
        "BusType": 1,
        "RouteName": "醫專2號",
        "Direction": 0,
        "StopSequence": 6
    },
    {
        "StopName": "臺北榮總新竹分院",
        "Lon": 121.098893,
        "Lat": 24.72327989,
        "BusType": 1,
        "RouteName": "醫專2號",
        "Direction": 0,
        "StopSequence": 7
    },
    {
        "StopName": "竹東",
        "Lon": 121.085747,
        "Lat": 24.739744,
        "BusType": 1,
        "RouteName": "醫專2號",
        "Direction": 0,
        "StopSequence": 8
    },
    {
        "StopName": "竹東",
        "Lon": 121.085747,
        "Lat": 24.739744,
        "BusType": 1,
        "RouteName": "醫專2號",
        "Direction": 1,
        "StopSequence": 1
    },
    {
        "StopName": "臺北榮總新竹分院",
        "Lon": 121.098893,
        "Lat": 24.72327989,
        "BusType": 1,
        "RouteName": "醫專2號",
        "Direction": 1,
        "StopSequence": 2
    },
    {
        "StopName": "臺大醫院竹東分院",
        "Lon": 121.0943803,
        "Lat": 24.7187209,
        "BusType": 1,
        "RouteName": "醫專2號",
        "Direction": 1,
        "StopSequence": 3
    },
    {
        "StopName": "北埔",
        "Lon": 121.057,
        "Lat": 24.70073,
        "BusType": 1,
        "RouteName": "醫專2號",
        "Direction": 1,
        "StopSequence": 4
    },
    {
        "StopName": "中興",
        "Lon": 121.03204,
        "Lat": 24.6923,
        "BusType": 1,
        "RouteName": "醫專2號",
        "Direction": 1,
        "StopSequence": 5
    },
    {
        "StopName": "峨眉衛生所",
        "Lon": 121.02151,
        "Lat": 24.68854,
        "BusType": 1,
        "RouteName": "醫專2號",
        "Direction": 1,
        "StopSequence": 6
    },
    {
        "StopName": "峨眉",
        "Lon": 121.01979,
        "Lat": 24.68866,
        "BusType": 1,
        "RouteName": "醫專2號",
        "Direction": 1,
        "StopSequence": 7
    },
    {
        "StopName": "獅山",
        "Lon": 121.02294,
        "Lat": 24.65595,
        "BusType": 1,
        "RouteName": "醫專2號",
        "Direction": 1,
        "StopSequence": 8
    },
    {
        "StopName": "珊珠湖",
        "Lon": 120.95802,
        "Lat": 24.68353,
        "BusType": 1,
        "RouteName": "醫專1號",
        "Direction": 0,
        "StopSequence": 1
    },
    {
        "StopName": "富興",
        "Lon": 120.98874,
        "Lat": 24.68823,
        "BusType": 1,
        "RouteName": "醫專1號",
        "Direction": 0,
        "StopSequence": 2
    },
    {
        "StopName": "石井",
        "Lon": 121.00235,
        "Lat": 24.69794,
        "BusType": 1,
        "RouteName": "醫專1號",
        "Direction": 0,
        "StopSequence": 3
    },
    {
        "StopName": "峨眉",
        "Lon": 121.01979,
        "Lat": 24.68866,
        "BusType": 1,
        "RouteName": "醫專1號",
        "Direction": 0,
        "StopSequence": 4
    },
    {
        "StopName": "峨眉衛生所",
        "Lon": 121.02151,
        "Lat": 24.68854,
        "BusType": 1,
        "RouteName": "醫專1號",
        "Direction": 0,
        "StopSequence": 5
    },
    {
        "StopName": "中興",
        "Lon": 121.03204,
        "Lat": 24.6923,
        "BusType": 1,
        "RouteName": "醫專1號",
        "Direction": 0,
        "StopSequence": 6
    },
    {
        "StopName": "北埔",
        "Lon": 121.057,
        "Lat": 24.70073,
        "BusType": 1,
        "RouteName": "醫專1號",
        "Direction": 0,
        "StopSequence": 7
    },
    {
        "StopName": "臺大醫院竹東分院",
        "Lon": 121.0943803,
        "Lat": 24.7187209,
        "BusType": 1,
        "RouteName": "醫專1號",
        "Direction": 0,
        "StopSequence": 8
    },
    {
        "StopName": "臺北榮總新竹分院",
        "Lon": 121.098893,
        "Lat": 24.72327989,
        "BusType": 1,
        "RouteName": "醫專1號",
        "Direction": 0,
        "StopSequence": 9
    },
    {
        "StopName": "竹東",
        "Lon": 121.085747,
        "Lat": 24.739744,
        "BusType": 1,
        "RouteName": "醫專1號",
        "Direction": 0,
        "StopSequence": 10
    },
    {
        "StopName": "竹東",
        "Lon": 121.085747,
        "Lat": 24.739744,
        "BusType": 1,
        "RouteName": "醫專1號",
        "Direction": 1,
        "StopSequence": 1
    },
    {
        "StopName": "臺北榮總新竹分院",
        "Lon": 121.098893,
        "Lat": 24.72327989,
        "BusType": 1,
        "RouteName": "醫專1號",
        "Direction": 1,
        "StopSequence": 2
    },
    {
        "StopName": "臺大醫院竹東分院",
        "Lon": 121.0943803,
        "Lat": 24.7187209,
        "BusType": 1,
        "RouteName": "醫專1號",
        "Direction": 1,
        "StopSequence": 3
    },
    {
        "StopName": "北埔",
        "Lon": 121.057,
        "Lat": 24.70073,
        "BusType": 1,
        "RouteName": "醫專1號",
        "Direction": 1,
        "StopSequence": 4
    },
    {
        "StopName": "中興",
        "Lon": 121.03204,
        "Lat": 24.6923,
        "BusType": 1,
        "RouteName": "醫專1號",
        "Direction": 1,
        "StopSequence": 5
    },
    {
        "StopName": "峨眉衛生所",
        "Lon": 121.02151,
        "Lat": 24.68854,
        "BusType": 1,
        "RouteName": "醫專1號",
        "Direction": 1,
        "StopSequence": 6
    },
    {
        "StopName": "峨眉",
        "Lon": 121.01979,
        "Lat": 24.68866,
        "BusType": 1,
        "RouteName": "醫專1號",
        "Direction": 1,
        "StopSequence": 7
    },
    {
        "StopName": "石井",
        "Lon": 121.00235,
        "Lat": 24.69794,
        "BusType": 1,
        "RouteName": "醫專1號",
        "Direction": 1,
        "StopSequence": 8
    },
    {
        "StopName": "富興",
        "Lon": 120.98874,
        "Lat": 24.68823,
        "BusType": 1,
        "RouteName": "醫專1號",
        "Direction": 1,
        "StopSequence": 9
    },
    {
        "StopName": "珊珠湖",
        "Lon": 120.95802,
        "Lat": 24.68353,
        "BusType": 1,
        "RouteName": "醫專1號",
        "Direction": 1,
        "StopSequence": 10
    },
    {
        "StopName": "家樂福",
        "Lon": 121.0088318,
        "Lat": 24.8279336,
        "BusType": 1,
        "RouteName": "66",
        "Direction": 0,
        "StopSequence": 1
    },
    {
        "StopName": "衛生所",
        "Lon": 121.0063127,
        "Lat": 24.83137974,
        "BusType": 1,
        "RouteName": "66",
        "Direction": 0,
        "StopSequence": 2
    },
    {
        "StopName": "新仁大安醫院",
        "Lon": 121.0077636,
        "Lat": 24.83496375,
        "BusType": 1,
        "RouteName": "66",
        "Direction": 0,
        "StopSequence": 3
    },
    {
        "StopName": "竹北",
        "Lon": 121.0097102,
        "Lat": 24.83782777,
        "BusType": 1,
        "RouteName": "66",
        "Direction": 0,
        "StopSequence": 4
    },
    {
        "StopName": "台元紡織廠",
        "Lon": 121.0115188,
        "Lat": 24.83855671,
        "BusType": 1,
        "RouteName": "66",
        "Direction": 0,
        "StopSequence": 5
    },
    {
        "StopName": "北和宮",
        "Lon": 121.0153132,
        "Lat": 24.83797375,
        "BusType": 1,
        "RouteName": "66",
        "Direction": 0,
        "StopSequence": 6
    },
    {
        "StopName": "文化街口",
        "Lon": 121.0150525,
        "Lat": 24.83615085,
        "BusType": 1,
        "RouteName": "66",
        "Direction": 0,
        "StopSequence": 7
    },
    {
        "StopName": "天后宮",
        "Lon": 121.0115632,
        "Lat": 24.83548915,
        "BusType": 1,
        "RouteName": "66",
        "Direction": 0,
        "StopSequence": 8
    },
    {
        "StopName": "市公所",
        "Lon": 121.003766,
        "Lat": 24.839464,
        "BusType": 1,
        "RouteName": "66",
        "Direction": 0,
        "StopSequence": 9
    },
    {
        "StopName": "竹北國中",
        "Lon": 121.000325,
        "Lat": 24.841039,
        "BusType": 1,
        "RouteName": "66",
        "Direction": 0,
        "StopSequence": 10
    },
    {
        "StopName": "新社",
        "Lon": 120.9982749,
        "Lat": 24.84213343,
        "BusType": 1,
        "RouteName": "66",
        "Direction": 0,
        "StopSequence": 11
    },
    {
        "StopName": "新社里",
        "Lon": 120.9945007,
        "Lat": 24.8435473,
        "BusType": 1,
        "RouteName": "66",
        "Direction": 0,
        "StopSequence": 12
    },
    {
        "StopName": "溝貝街口",
        "Lon": 120.990732,
        "Lat": 24.845772,
        "BusType": 1,
        "RouteName": "66",
        "Direction": 0,
        "StopSequence": 13
    },
    {
        "StopName": "聯興社區",
        "Lon": 120.9880451,
        "Lat": 24.84650894,
        "BusType": 1,
        "RouteName": "66",
        "Direction": 0,
        "StopSequence": 14
    },
    {
        "StopName": "蓮園社區",
        "Lon": 120.9852256,
        "Lat": 24.84702619,
        "BusType": 1,
        "RouteName": "66",
        "Direction": 0,
        "StopSequence": 15
    },
    {
        "StopName": "土地廟",
        "Lon": 120.98232,
        "Lat": 24.84794,
        "BusType": 1,
        "RouteName": "66",
        "Direction": 0,
        "StopSequence": 16
    },
    {
        "StopName": "長園",
        "Lon": 120.9792168,
        "Lat": 24.84925026,
        "BusType": 1,
        "RouteName": "66",
        "Direction": 0,
        "StopSequence": 17
    },
    {
        "StopName": "麻園涼亭",
        "Lon": 120.9767317,
        "Lat": 24.8478027,
        "BusType": 1,
        "RouteName": "66",
        "Direction": 0,
        "StopSequence": 18
    },
    {
        "StopName": "麻園國小",
        "Lon": 120.9763839,
        "Lat": 24.84630211,
        "BusType": 1,
        "RouteName": "66",
        "Direction": 0,
        "StopSequence": 19
    },
    {
        "StopName": "麻園橋",
        "Lon": 120.9763193,
        "Lat": 24.84468941,
        "BusType": 1,
        "RouteName": "66",
        "Direction": 0,
        "StopSequence": 20
    },
    {
        "StopName": "大灣街口",
        "Lon": 120.9751817,
        "Lat": 24.84251836,
        "BusType": 1,
        "RouteName": "66",
        "Direction": 0,
        "StopSequence": 21
    },
    {
        "StopName": "溪洲",
        "Lon": 120.9763669,
        "Lat": 24.84090534,
        "BusType": 1,
        "RouteName": "66",
        "Direction": 0,
        "StopSequence": 22
    },
    {
        "StopName": "聯興",
        "Lon": 120.9788015,
        "Lat": 24.84067211,
        "BusType": 1,
        "RouteName": "66",
        "Direction": 0,
        "StopSequence": 23
    },
    {
        "StopName": "邱厝",
        "Lon": 120.9805222,
        "Lat": 24.84054106,
        "BusType": 1,
        "RouteName": "66",
        "Direction": 0,
        "StopSequence": 24
    },
    {
        "StopName": "馬麟厝",
        "Lon": 120.9848215,
        "Lat": 24.84063047,
        "BusType": 1,
        "RouteName": "66",
        "Direction": 0,
        "StopSequence": 25
    },
    {
        "StopName": "陳厝",
        "Lon": 120.9842824,
        "Lat": 24.83791566,
        "BusType": 1,
        "RouteName": "66",
        "Direction": 0,
        "StopSequence": 26
    },
    {
        "StopName": "澎湖窟",
        "Lon": 120.9838171,
        "Lat": 24.83625572,
        "BusType": 1,
        "RouteName": "66",
        "Direction": 0,
        "StopSequence": 27
    },
    {
        "StopName": "溪洲里",
        "Lon": 120.983051,
        "Lat": 24.83302895,
        "BusType": 1,
        "RouteName": "66",
        "Direction": 0,
        "StopSequence": 28
    },
    {
        "StopName": "福德宮",
        "Lon": 120.9833493,
        "Lat": 24.83150322,
        "BusType": 1,
        "RouteName": "66",
        "Direction": 0,
        "StopSequence": 29
    },
    {
        "StopName": "三玄宮",
        "Lon": 120.9887756,
        "Lat": 24.83208507,
        "BusType": 1,
        "RouteName": "66",
        "Direction": 0,
        "StopSequence": 30
    },
    {
        "StopName": "新溪街",
        "Lon": 120.9911507,
        "Lat": 24.83318862,
        "BusType": 1,
        "RouteName": "66",
        "Direction": 0,
        "StopSequence": 31
    },
    {
        "StopName": "林厝",
        "Lon": 120.9940834,
        "Lat": 24.83462507,
        "BusType": 1,
        "RouteName": "66",
        "Direction": 0,
        "StopSequence": 32
    },
    {
        "StopName": "華興街",
        "Lon": 121.0006924,
        "Lat": 24.83828126,
        "BusType": 1,
        "RouteName": "66",
        "Direction": 0,
        "StopSequence": 33
    },
    {
        "StopName": "市公所",
        "Lon": 121.0043667,
        "Lat": 24.83909402,
        "BusType": 1,
        "RouteName": "66",
        "Direction": 0,
        "StopSequence": 34
    },
    {
        "StopName": "竹北口",
        "Lon": 121.0050879,
        "Lat": 24.83798444,
        "BusType": 1,
        "RouteName": "66",
        "Direction": 0,
        "StopSequence": 35
    },
    {
        "StopName": "水利大樓",
        "Lon": 121.004474,
        "Lat": 24.834571,
        "BusType": 1,
        "RouteName": "66",
        "Direction": 0,
        "StopSequence": 36
    },
    {
        "StopName": "豆子埔橋",
        "Lon": 121.003144,
        "Lat": 24.83213,
        "BusType": 1,
        "RouteName": "66",
        "Direction": 0,
        "StopSequence": 37
    },
    {
        "StopName": "公九公園",
        "Lon": 121.0011,
        "Lat": 24.83292,
        "BusType": 1,
        "RouteName": "66",
        "Direction": 0,
        "StopSequence": 38
    },
    {
        "StopName": "里活動中心",
        "Lon": 120.998522,
        "Lat": 24.829829,
        "BusType": 1,
        "RouteName": "66",
        "Direction": 0,
        "StopSequence": 39
    },
    {
        "StopName": "下斗崙",
        "Lon": 120.9992005,
        "Lat": 24.82916654,
        "BusType": 1,
        "RouteName": "66",
        "Direction": 0,
        "StopSequence": 40
    },
    {
        "StopName": "台新罐頭廠",
        "Lon": 121.00264,
        "Lat": 24.827108,
        "BusType": 1,
        "RouteName": "66",
        "Direction": 0,
        "StopSequence": 41
    },
    {
        "StopName": "中醫大",
        "Lon": 121.001969,
        "Lat": 24.824954,
        "BusType": 1,
        "RouteName": "66",
        "Direction": 0,
        "StopSequence": 42
    },
    {
        "StopName": "台新罐頭廠",
        "Lon": 121.0026403,
        "Lat": 24.82711249,
        "BusType": 1,
        "RouteName": "66",
        "Direction": 0,
        "StopSequence": 43
    },
    {
        "StopName": "祖師廟",
        "Lon": 121.0065571,
        "Lat": 24.82548473,
        "BusType": 1,
        "RouteName": "66",
        "Direction": 0,
        "StopSequence": 44
    },
    {
        "StopName": "縣政九路",
        "Lon": 121.0086831,
        "Lat": 24.82509802,
        "BusType": 1,
        "RouteName": "66",
        "Direction": 0,
        "StopSequence": 45
    },
    {
        "StopName": "家樂福",
        "Lon": 121.0088318,
        "Lat": 24.8279336,
        "BusType": 1,
        "RouteName": "66",
        "Direction": 0,
        "StopSequence": 46
    },
    {
        "StopName": "家樂福",
        "Lon": 121.0088318,
        "Lat": 24.8279336,
        "BusType": 1,
        "RouteName": "66A",
        "Direction": 0,
        "StopSequence": 1
    },
    {
        "StopName": "衛生所",
        "Lon": 121.0063127,
        "Lat": 24.83137974,
        "BusType": 1,
        "RouteName": "66A",
        "Direction": 0,
        "StopSequence": 2
    },
    {
        "StopName": "新仁大安醫院",
        "Lon": 121.0077636,
        "Lat": 24.83496375,
        "BusType": 1,
        "RouteName": "66A",
        "Direction": 0,
        "StopSequence": 3
    },
    {
        "StopName": "竹北",
        "Lon": 121.0097102,
        "Lat": 24.83782777,
        "BusType": 1,
        "RouteName": "66A",
        "Direction": 0,
        "StopSequence": 4
    },
    {
        "StopName": "台元紡織廠",
        "Lon": 121.0115188,
        "Lat": 24.83855671,
        "BusType": 1,
        "RouteName": "66A",
        "Direction": 0,
        "StopSequence": 5
    },
    {
        "StopName": "北和宮",
        "Lon": 121.0153132,
        "Lat": 24.83797375,
        "BusType": 1,
        "RouteName": "66A",
        "Direction": 0,
        "StopSequence": 6
    },
    {
        "StopName": "文化街口",
        "Lon": 121.0150525,
        "Lat": 24.83615085,
        "BusType": 1,
        "RouteName": "66A",
        "Direction": 0,
        "StopSequence": 7
    },
    {
        "StopName": "天后宮",
        "Lon": 121.0115632,
        "Lat": 24.83548915,
        "BusType": 1,
        "RouteName": "66A",
        "Direction": 0,
        "StopSequence": 8
    },
    {
        "StopName": "市公所",
        "Lon": 121.003766,
        "Lat": 24.839464,
        "BusType": 1,
        "RouteName": "66A",
        "Direction": 0,
        "StopSequence": 9
    },
    {
        "StopName": "竹北國中",
        "Lon": 121.000325,
        "Lat": 24.841039,
        "BusType": 1,
        "RouteName": "66A",
        "Direction": 0,
        "StopSequence": 10
    },
    {
        "StopName": "新社",
        "Lon": 120.9982749,
        "Lat": 24.84213343,
        "BusType": 1,
        "RouteName": "66A",
        "Direction": 0,
        "StopSequence": 11
    },
    {
        "StopName": "新社里",
        "Lon": 120.9945007,
        "Lat": 24.8435473,
        "BusType": 1,
        "RouteName": "66A",
        "Direction": 0,
        "StopSequence": 12
    },
    {
        "StopName": "溝貝街口",
        "Lon": 120.990732,
        "Lat": 24.845772,
        "BusType": 1,
        "RouteName": "66A",
        "Direction": 0,
        "StopSequence": 13
    },
    {
        "StopName": "聯興社區",
        "Lon": 120.9880451,
        "Lat": 24.84650894,
        "BusType": 1,
        "RouteName": "66A",
        "Direction": 0,
        "StopSequence": 14
    },
    {
        "StopName": "蓮園社區",
        "Lon": 120.9852256,
        "Lat": 24.84702619,
        "BusType": 1,
        "RouteName": "66A",
        "Direction": 0,
        "StopSequence": 15
    },
    {
        "StopName": "土地廟",
        "Lon": 120.98232,
        "Lat": 24.84794,
        "BusType": 1,
        "RouteName": "66A",
        "Direction": 0,
        "StopSequence": 16
    },
    {
        "StopName": "長園",
        "Lon": 120.9792168,
        "Lat": 24.84925026,
        "BusType": 1,
        "RouteName": "66A",
        "Direction": 0,
        "StopSequence": 17
    },
    {
        "StopName": "麻園涼亭",
        "Lon": 120.9767317,
        "Lat": 24.8478027,
        "BusType": 1,
        "RouteName": "66A",
        "Direction": 0,
        "StopSequence": 18
    },
    {
        "StopName": "麻園國小",
        "Lon": 120.9763839,
        "Lat": 24.84630211,
        "BusType": 1,
        "RouteName": "66A",
        "Direction": 0,
        "StopSequence": 19
    },
    {
        "StopName": "麻園橋",
        "Lon": 120.9763193,
        "Lat": 24.84468941,
        "BusType": 1,
        "RouteName": "66A",
        "Direction": 0,
        "StopSequence": 20
    },
    {
        "StopName": "大灣街口",
        "Lon": 120.9751817,
        "Lat": 24.84251836,
        "BusType": 1,
        "RouteName": "66A",
        "Direction": 0,
        "StopSequence": 21
    },
    {
        "StopName": "青山宮",
        "Lon": 120.97542,
        "Lat": 24.83717,
        "BusType": 1,
        "RouteName": "66A",
        "Direction": 0,
        "StopSequence": 22
    },
    {
        "StopName": "竹彎",
        "Lon": 120.97341,
        "Lat": 24.83602,
        "BusType": 1,
        "RouteName": "66A",
        "Direction": 0,
        "StopSequence": 23
    },
    {
        "StopName": "竹西班",
        "Lon": 120.9727,
        "Lat": 24.83394,
        "BusType": 1,
        "RouteName": "66A",
        "Direction": 0,
        "StopSequence": 24
    },
    {
        "StopName": "馮屋",
        "Lon": 120.97469,
        "Lat": 24.83261,
        "BusType": 1,
        "RouteName": "66A",
        "Direction": 0,
        "StopSequence": 25
    },
    {
        "StopName": "日光城心",
        "Lon": 120.97501,
        "Lat": 24.8332,
        "BusType": 1,
        "RouteName": "66A",
        "Direction": 0,
        "StopSequence": 26
    },
    {
        "StopName": "溪洲",
        "Lon": 120.9763669,
        "Lat": 24.84090534,
        "BusType": 1,
        "RouteName": "66A",
        "Direction": 0,
        "StopSequence": 27
    },
    {
        "StopName": "聯興",
        "Lon": 120.9788015,
        "Lat": 24.84067211,
        "BusType": 1,
        "RouteName": "66A",
        "Direction": 0,
        "StopSequence": 28
    },
    {
        "StopName": "邱厝",
        "Lon": 120.9805222,
        "Lat": 24.84054106,
        "BusType": 1,
        "RouteName": "66A",
        "Direction": 0,
        "StopSequence": 29
    },
    {
        "StopName": "馬麟厝",
        "Lon": 120.9848215,
        "Lat": 24.84063047,
        "BusType": 1,
        "RouteName": "66A",
        "Direction": 0,
        "StopSequence": 30
    },
    {
        "StopName": "陳厝",
        "Lon": 120.9842824,
        "Lat": 24.83791566,
        "BusType": 1,
        "RouteName": "66A",
        "Direction": 0,
        "StopSequence": 31
    },
    {
        "StopName": "澎湖窟",
        "Lon": 120.9838171,
        "Lat": 24.83625572,
        "BusType": 1,
        "RouteName": "66A",
        "Direction": 0,
        "StopSequence": 32
    },
    {
        "StopName": "溪洲里",
        "Lon": 120.983051,
        "Lat": 24.83302895,
        "BusType": 1,
        "RouteName": "66A",
        "Direction": 0,
        "StopSequence": 33
    },
    {
        "StopName": "福德宮",
        "Lon": 120.9833493,
        "Lat": 24.83150322,
        "BusType": 1,
        "RouteName": "66A",
        "Direction": 0,
        "StopSequence": 34
    },
    {
        "StopName": "三玄宮",
        "Lon": 120.9887756,
        "Lat": 24.83208507,
        "BusType": 1,
        "RouteName": "66A",
        "Direction": 0,
        "StopSequence": 35
    },
    {
        "StopName": "新溪街",
        "Lon": 120.9911507,
        "Lat": 24.83318862,
        "BusType": 1,
        "RouteName": "66A",
        "Direction": 0,
        "StopSequence": 36
    },
    {
        "StopName": "林厝",
        "Lon": 120.9940834,
        "Lat": 24.83462507,
        "BusType": 1,
        "RouteName": "66A",
        "Direction": 0,
        "StopSequence": 37
    },
    {
        "StopName": "華興街",
        "Lon": 121.0006924,
        "Lat": 24.83828126,
        "BusType": 1,
        "RouteName": "66A",
        "Direction": 0,
        "StopSequence": 38
    },
    {
        "StopName": "市公所",
        "Lon": 121.0043667,
        "Lat": 24.83909402,
        "BusType": 1,
        "RouteName": "66A",
        "Direction": 0,
        "StopSequence": 39
    },
    {
        "StopName": "竹北口",
        "Lon": 121.0050879,
        "Lat": 24.83798444,
        "BusType": 1,
        "RouteName": "66A",
        "Direction": 0,
        "StopSequence": 40
    },
    {
        "StopName": "水利大樓",
        "Lon": 121.004474,
        "Lat": 24.834571,
        "BusType": 1,
        "RouteName": "66A",
        "Direction": 0,
        "StopSequence": 41
    },
    {
        "StopName": "豆子埔橋",
        "Lon": 121.003144,
        "Lat": 24.83213,
        "BusType": 1,
        "RouteName": "66A",
        "Direction": 0,
        "StopSequence": 42
    },
    {
        "StopName": "公九公園",
        "Lon": 121.0011,
        "Lat": 24.83292,
        "BusType": 1,
        "RouteName": "66A",
        "Direction": 0,
        "StopSequence": 43
    },
    {
        "StopName": "里活動中心",
        "Lon": 120.998522,
        "Lat": 24.829829,
        "BusType": 1,
        "RouteName": "66A",
        "Direction": 0,
        "StopSequence": 44
    },
    {
        "StopName": "下斗崙",
        "Lon": 120.9992005,
        "Lat": 24.82916654,
        "BusType": 1,
        "RouteName": "66A",
        "Direction": 0,
        "StopSequence": 45
    },
    {
        "StopName": "台新罐頭廠",
        "Lon": 121.00264,
        "Lat": 24.827108,
        "BusType": 1,
        "RouteName": "66A",
        "Direction": 0,
        "StopSequence": 46
    },
    {
        "StopName": "中醫大",
        "Lon": 121.001969,
        "Lat": 24.824954,
        "BusType": 1,
        "RouteName": "66A",
        "Direction": 0,
        "StopSequence": 47
    },
    {
        "StopName": "台新罐頭廠",
        "Lon": 121.0026403,
        "Lat": 24.82711249,
        "BusType": 1,
        "RouteName": "66A",
        "Direction": 0,
        "StopSequence": 48
    },
    {
        "StopName": "祖師廟",
        "Lon": 121.0065571,
        "Lat": 24.82548473,
        "BusType": 1,
        "RouteName": "66A",
        "Direction": 0,
        "StopSequence": 49
    },
    {
        "StopName": "縣政九路",
        "Lon": 121.0086831,
        "Lat": 24.82509802,
        "BusType": 1,
        "RouteName": "66A",
        "Direction": 0,
        "StopSequence": 50
    },
    {
        "StopName": "家樂福",
        "Lon": 121.0088318,
        "Lat": 24.8279336,
        "BusType": 1,
        "RouteName": "66A",
        "Direction": 0,
        "StopSequence": 51
    },
    {
        "StopName": "竹北市公所站",
        "Lon": 121.004,
        "Lat": 24.839,
        "BusType": 1,
        "RouteName": "快捷7號",
        "Direction": 0,
        "StopSequence": 1
    },
    {
        "StopName": "天后宮站",
        "Lon": 121.012376,
        "Lat": 24.835196,
        "BusType": 1,
        "RouteName": "快捷7號",
        "Direction": 0,
        "StopSequence": 2
    },
    {
        "StopName": "竹北地政事務所站",
        "Lon": 121.0132918,
        "Lat": 24.83324483,
        "BusType": 1,
        "RouteName": "快捷7號",
        "Direction": 0,
        "StopSequence": 3
    },
    {
        "StopName": "文化中心站",
        "Lon": 121.013872,
        "Lat": 24.830599,
        "BusType": 1,
        "RouteName": "快捷7號",
        "Direction": 0,
        "StopSequence": 4
    },
    {
        "StopName": "縣政二路站",
        "Lon": 121.018153,
        "Lat": 24.830782,
        "BusType": 1,
        "RouteName": "快捷7號",
        "Direction": 0,
        "StopSequence": 5
    },
    {
        "StopName": "婦幼館站",
        "Lon": 121.019509,
        "Lat": 24.833847,
        "BusType": 1,
        "RouteName": "快捷7號",
        "Direction": 0,
        "StopSequence": 6
    },
    {
        "StopName": "十興路站",
        "Lon": 121.02349,
        "Lat": 24.83309,
        "BusType": 1,
        "RouteName": "快捷7號",
        "Direction": 0,
        "StopSequence": 7
    },
    {
        "StopName": "莊敬北路站",
        "Lon": 121.0261033,
        "Lat": 24.82957984,
        "BusType": 1,
        "RouteName": "快捷7號",
        "Direction": 0,
        "StopSequence": 8
    },
    {
        "StopName": "十興國小站",
        "Lon": 121.023773,
        "Lat": 24.8246,
        "BusType": 1,
        "RouteName": "快捷7號",
        "Direction": 0,
        "StopSequence": 9
    },
    {
        "StopName": "勝利二路站",
        "Lon": 121.02684,
        "Lat": 24.82247,
        "BusType": 1,
        "RouteName": "快捷7號",
        "Direction": 0,
        "StopSequence": 10
    },
    {
        "StopName": "喜來登飯店站",
        "Lon": 121.029188,
        "Lat": 24.82122732,
        "BusType": 1,
        "RouteName": "快捷7號",
        "Direction": 0,
        "StopSequence": 11
    },
    {
        "StopName": "嘉豐郵局站",
        "Lon": 121.027965,
        "Lat": 24.81486,
        "BusType": 1,
        "RouteName": "快捷7號",
        "Direction": 0,
        "StopSequence": 12
    },
    {
        "StopName": "特殊教育學校站",
        "Lon": 121.0327,
        "Lat": 24.814253,
        "BusType": 1,
        "RouteName": "快捷7號",
        "Direction": 0,
        "StopSequence": 13
    },
    {
        "StopName": "新竹高鐵站",
        "Lon": 121.04028,
        "Lat": 24.80719,
        "BusType": 1,
        "RouteName": "快捷7號",
        "Direction": 0,
        "StopSequence": 14
    },
    {
        "StopName": "新竹高鐵站",
        "Lon": 121.04028,
        "Lat": 24.80719,
        "BusType": 1,
        "RouteName": "快捷7號",
        "Direction": 1,
        "StopSequence": 1
    },
    {
        "StopName": "文興嘉豐南路口站",
        "Lon": 121.032611,
        "Lat": 24.808586,
        "BusType": 1,
        "RouteName": "快捷7號",
        "Direction": 1,
        "StopSequence": 2
    },
    {
        "StopName": "新瓦屋站",
        "Lon": 121.027802,
        "Lat": 24.81132,
        "BusType": 1,
        "RouteName": "快捷7號",
        "Direction": 1,
        "StopSequence": 3
    },
    {
        "StopName": "嘉豐郵局站",
        "Lon": 121.027937,
        "Lat": 24.815107,
        "BusType": 1,
        "RouteName": "快捷7號",
        "Direction": 1,
        "StopSequence": 4
    },
    {
        "StopName": "自強南路站",
        "Lon": 121.027,
        "Lat": 24.818,
        "BusType": 1,
        "RouteName": "快捷7號",
        "Direction": 1,
        "StopSequence": 5
    },
    {
        "StopName": "勝利二路站",
        "Lon": 121.027114,
        "Lat": 24.822534,
        "BusType": 1,
        "RouteName": "快捷7號",
        "Direction": 1,
        "StopSequence": 6
    },
    {
        "StopName": "十興國小站",
        "Lon": 121.024156,
        "Lat": 24.824621,
        "BusType": 1,
        "RouteName": "快捷7號",
        "Direction": 1,
        "StopSequence": 7
    },
    {
        "StopName": "莊敬北路站",
        "Lon": 121.026338,
        "Lat": 24.829441,
        "BusType": 1,
        "RouteName": "快捷7號",
        "Direction": 1,
        "StopSequence": 8
    },
    {
        "StopName": "十興路站",
        "Lon": 121.02349,
        "Lat": 24.83309,
        "BusType": 1,
        "RouteName": "快捷7號",
        "Direction": 1,
        "StopSequence": 9
    },
    {
        "StopName": "婦幼館站",
        "Lon": 121.019265,
        "Lat": 24.833873,
        "BusType": 1,
        "RouteName": "快捷7號",
        "Direction": 1,
        "StopSequence": 10
    },
    {
        "StopName": "縣政二路站",
        "Lon": 121.01791,
        "Lat": 24.830887,
        "BusType": 1,
        "RouteName": "快捷7號",
        "Direction": 1,
        "StopSequence": 11
    },
    {
        "StopName": "文化中心站",
        "Lon": 121.014062,
        "Lat": 24.830682,
        "BusType": 1,
        "RouteName": "快捷7號",
        "Direction": 1,
        "StopSequence": 12
    },
    {
        "StopName": "竹北地政事務所站",
        "Lon": 121.013,
        "Lat": 24.833,
        "BusType": 1,
        "RouteName": "快捷7號",
        "Direction": 1,
        "StopSequence": 13
    },
    {
        "StopName": "天后宮",
        "Lon": 121.01156,
        "Lat": 24.83549,
        "BusType": 1,
        "RouteName": "快捷7號",
        "Direction": 1,
        "StopSequence": 14
    },
    {
        "StopName": "中泰路口站",
        "Lon": 121.0055015,
        "Lat": 24.84024,
        "BusType": 1,
        "RouteName": "快捷7號",
        "Direction": 1,
        "StopSequence": 15
    },
    {
        "StopName": "竹北市公所站",
        "Lon": 121.004,
        "Lat": 24.839,
        "BusType": 1,
        "RouteName": "快捷7號",
        "Direction": 1,
        "StopSequence": 16
    },
    {
        "StopName": "高鐵新竹站",
        "Lon": 121.040492,
        "Lat": 24.807182,
        "BusType": 1,
        "RouteName": "觀光2號",
        "Direction": 0,
        "StopSequence": 1
    },
    {
        "StopName": "關西老街(關西國中)",
        "Lon": 121.172488,
        "Lat": 24.797029,
        "BusType": 1,
        "RouteName": "觀光2號",
        "Direction": 0,
        "StopSequence": 2
    },
    {
        "StopName": "六福村主題樂園",
        "Lon": 121.184925,
        "Lat": 24.822061,
        "BusType": 1,
        "RouteName": "觀光2號",
        "Direction": 0,
        "StopSequence": 3
    },
    {
        "StopName": "六福村主題樂園",
        "Lon": 121.184925,
        "Lat": 24.822083,
        "BusType": 1,
        "RouteName": "觀光2號",
        "Direction": 1,
        "StopSequence": 1
    },
    {
        "StopName": "關西老街(關西國中)",
        "Lon": 121.172402,
        "Lat": 24.797132,
        "BusType": 1,
        "RouteName": "觀光2號",
        "Direction": 1,
        "StopSequence": 2
    },
    {
        "StopName": "高鐵新竹站",
        "Lon": 121.040492,
        "Lat": 24.807182,
        "BusType": 1,
        "RouteName": "觀光2號",
        "Direction": 1,
        "StopSequence": 3
    },
    {
        "StopName": "家樂福",
        "Lon": 121.0088318,
        "Lat": 24.8279336,
        "BusType": 1,
        "RouteName": "61",
        "Direction": 0,
        "StopSequence": 1
    },
    {
        "StopName": "文化中心",
        "Lon": 121.0116387,
        "Lat": 24.83020958,
        "BusType": 1,
        "RouteName": "61",
        "Direction": 0,
        "StopSequence": 2
    },
    {
        "StopName": "縣政府",
        "Lon": 121.0116684,
        "Lat": 24.82598852,
        "BusType": 1,
        "RouteName": "61",
        "Direction": 0,
        "StopSequence": 3
    },
    {
        "StopName": "東元醫院",
        "Lon": 121.012698,
        "Lat": 24.82352697,
        "BusType": 1,
        "RouteName": "61",
        "Direction": 0,
        "StopSequence": 4
    },
    {
        "StopName": "泉州厝",
        "Lon": 121.0138224,
        "Lat": 24.82113566,
        "BusType": 1,
        "RouteName": "61",
        "Direction": 0,
        "StopSequence": 5
    },
    {
        "StopName": "上泉州厝",
        "Lon": 121.01742,
        "Lat": 24.81976,
        "BusType": 1,
        "RouteName": "61",
        "Direction": 0,
        "StopSequence": 6
    },
    {
        "StopName": "縣體育館",
        "Lon": 121.01937,
        "Lat": 24.81927,
        "BusType": 1,
        "RouteName": "61",
        "Direction": 0,
        "StopSequence": 7
    },
    {
        "StopName": "上鹿場",
        "Lon": 121.023372,
        "Lat": 24.81804314,
        "BusType": 1,
        "RouteName": "61",
        "Direction": 0,
        "StopSequence": 8
    },
    {
        "StopName": "六家農會",
        "Lon": 121.0281584,
        "Lat": 24.81768914,
        "BusType": 1,
        "RouteName": "61",
        "Direction": 0,
        "StopSequence": 9
    },
    {
        "StopName": "六家",
        "Lon": 121.0263517,
        "Lat": 24.81616914,
        "BusType": 1,
        "RouteName": "61",
        "Direction": 0,
        "StopSequence": 10
    },
    {
        "StopName": "嘉豐一街",
        "Lon": 121.0279851,
        "Lat": 24.81492045,
        "BusType": 1,
        "RouteName": "61",
        "Direction": 0,
        "StopSequence": 11
    },
    {
        "StopName": "客家園區",
        "Lon": 121.027769,
        "Lat": 24.811559,
        "BusType": 1,
        "RouteName": "61",
        "Direction": 0,
        "StopSequence": 12
    },
    {
        "StopName": "嘉政一街",
        "Lon": 121.026572,
        "Lat": 24.80875453,
        "BusType": 1,
        "RouteName": "61",
        "Direction": 0,
        "StopSequence": 13
    },
    {
        "StopName": "六家五路",
        "Lon": 121.0292378,
        "Lat": 24.80736922,
        "BusType": 1,
        "RouteName": "61",
        "Direction": 0,
        "StopSequence": 14
    },
    {
        "StopName": "東興國小",
        "Lon": 121.0331978,
        "Lat": 24.805428,
        "BusType": 1,
        "RouteName": "61",
        "Direction": 0,
        "StopSequence": 15
    },
    {
        "StopName": "水圳公園",
        "Lon": 121.0361385,
        "Lat": 24.80919722,
        "BusType": 1,
        "RouteName": "61",
        "Direction": 0,
        "StopSequence": 16
    },
    {
        "StopName": "六家高鐵站",
        "Lon": 121.0405616,
        "Lat": 24.80718757,
        "BusType": 1,
        "RouteName": "61",
        "Direction": 0,
        "StopSequence": 17
    },
    {
        "StopName": "台大生醫",
        "Lon": 121.0440337,
        "Lat": 24.80561717,
        "BusType": 1,
        "RouteName": "61",
        "Direction": 0,
        "StopSequence": 18
    },
    {
        "StopName": "高鐵八路",
        "Lon": 121.04067,
        "Lat": 24.80316,
        "BusType": 1,
        "RouteName": "61",
        "Direction": 0,
        "StopSequence": 19
    },
    {
        "StopName": "隘口三街",
        "Lon": 121.0429968,
        "Lat": 24.80108078,
        "BusType": 1,
        "RouteName": "61",
        "Direction": 0,
        "StopSequence": 20
    },
    {
        "StopName": "興隆",
        "Lon": 121.04265,
        "Lat": 24.80017,
        "BusType": 1,
        "RouteName": "61",
        "Direction": 0,
        "StopSequence": 21
    },
    {
        "StopName": "隘口",
        "Lon": 121.04836,
        "Lat": 24.79762,
        "BusType": 1,
        "RouteName": "61",
        "Direction": 0,
        "StopSequence": 22
    },
    {
        "StopName": "堤頂",
        "Lon": 121.053169,
        "Lat": 24.79311539,
        "BusType": 1,
        "RouteName": "61",
        "Direction": 0,
        "StopSequence": 23
    },
    {
        "StopName": "國產實業",
        "Lon": 121.05657,
        "Lat": 24.79231,
        "BusType": 1,
        "RouteName": "61",
        "Direction": 0,
        "StopSequence": 24
    },
    {
        "StopName": "東海里",
        "Lon": 121.0582,
        "Lat": 24.79324,
        "BusType": 1,
        "RouteName": "61",
        "Direction": 0,
        "StopSequence": 25
    },
    {
        "StopName": "三崁店",
        "Lon": 121.05676,
        "Lat": 24.79477,
        "BusType": 1,
        "RouteName": "61",
        "Direction": 0,
        "StopSequence": 26
    },
    {
        "StopName": "東光",
        "Lon": 121.05489,
        "Lat": 24.79752,
        "BusType": 1,
        "RouteName": "61",
        "Direction": 0,
        "StopSequence": 27
    },
    {
        "StopName": "東平",
        "Lon": 121.0525325,
        "Lat": 24.80053357,
        "BusType": 1,
        "RouteName": "61",
        "Direction": 0,
        "StopSequence": 28
    },
    {
        "StopName": "東海",
        "Lon": 121.0511361,
        "Lat": 24.80292975,
        "BusType": 1,
        "RouteName": "61",
        "Direction": 0,
        "StopSequence": 29
    },
    {
        "StopName": "東海國小",
        "Lon": 121.0496789,
        "Lat": 24.8053531,
        "BusType": 1,
        "RouteName": "61",
        "Direction": 0,
        "StopSequence": 30
    },
    {
        "StopName": "東興",
        "Lon": 121.04785,
        "Lat": 24.80802,
        "BusType": 1,
        "RouteName": "61",
        "Direction": 0,
        "StopSequence": 31
    },
    {
        "StopName": "下東興",
        "Lon": 121.04544,
        "Lat": 24.80965,
        "BusType": 1,
        "RouteName": "61",
        "Direction": 0,
        "StopSequence": 32
    },
    {
        "StopName": "米崙",
        "Lon": 121.04089,
        "Lat": 24.81276,
        "BusType": 1,
        "RouteName": "61",
        "Direction": 0,
        "StopSequence": 33
    },
    {
        "StopName": "上十興",
        "Lon": 121.0380602,
        "Lat": 24.81400461,
        "BusType": 1,
        "RouteName": "61",
        "Direction": 0,
        "StopSequence": 34
    },
    {
        "StopName": "十興",
        "Lon": 121.03536,
        "Lat": 24.81494,
        "BusType": 1,
        "RouteName": "61",
        "Direction": 0,
        "StopSequence": 35
    },
    {
        "StopName": "交叉口",
        "Lon": 121.0307936,
        "Lat": 24.81911434,
        "BusType": 1,
        "RouteName": "61",
        "Direction": 0,
        "StopSequence": 36
    },
    {
        "StopName": "喜來登",
        "Lon": 121.0291887,
        "Lat": 24.82008644,
        "BusType": 1,
        "RouteName": "61",
        "Direction": 0,
        "StopSequence": 37
    },
    {
        "StopName": "伍福宮",
        "Lon": 121.02891,
        "Lat": 24.82191,
        "BusType": 1,
        "RouteName": "61",
        "Direction": 0,
        "StopSequence": 38
    },
    {
        "StopName": "廣聖宮",
        "Lon": 121.0271019,
        "Lat": 24.82248277,
        "BusType": 1,
        "RouteName": "61",
        "Direction": 0,
        "StopSequence": 39
    },
    {
        "StopName": "十興國小",
        "Lon": 121.025841,
        "Lat": 24.824058,
        "BusType": 1,
        "RouteName": "61",
        "Direction": 0,
        "StopSequence": 40
    },
    {
        "StopName": "莊敬三路",
        "Lon": 121.027072,
        "Lat": 24.826598,
        "BusType": 1,
        "RouteName": "61",
        "Direction": 0,
        "StopSequence": 41
    },
    {
        "StopName": "莊敬北路",
        "Lon": 121.0263388,
        "Lat": 24.82939697,
        "BusType": 1,
        "RouteName": "61",
        "Direction": 0,
        "StopSequence": 42
    },
    {
        "StopName": "田屋",
        "Lon": 121.0255668,
        "Lat": 24.8314227,
        "BusType": 1,
        "RouteName": "61",
        "Direction": 0,
        "StopSequence": 43
    },
    {
        "StopName": "公園城",
        "Lon": 121.0235922,
        "Lat": 24.83306671,
        "BusType": 1,
        "RouteName": "61",
        "Direction": 0,
        "StopSequence": 44
    },
    {
        "StopName": "頂好超市",
        "Lon": 121.017952,
        "Lat": 24.835151,
        "BusType": 1,
        "RouteName": "61",
        "Direction": 0,
        "StopSequence": 45
    },
    {
        "StopName": "文化街口",
        "Lon": 121.015179,
        "Lat": 24.836153,
        "BusType": 1,
        "RouteName": "61",
        "Direction": 0,
        "StopSequence": 46
    },
    {
        "StopName": "北和宮",
        "Lon": 121.01547,
        "Lat": 24.83801842,
        "BusType": 1,
        "RouteName": "61",
        "Direction": 0,
        "StopSequence": 47
    },
    {
        "StopName": "台元紡織廠",
        "Lon": 121.0117546,
        "Lat": 24.83869434,
        "BusType": 1,
        "RouteName": "61",
        "Direction": 0,
        "StopSequence": 48
    },
    {
        "StopName": "竹北",
        "Lon": 121.0091883,
        "Lat": 24.83737237,
        "BusType": 1,
        "RouteName": "61",
        "Direction": 0,
        "StopSequence": 49
    },
    {
        "StopName": "新仁醫院",
        "Lon": 121.0086078,
        "Lat": 24.8350948,
        "BusType": 1,
        "RouteName": "61",
        "Direction": 0,
        "StopSequence": 50
    },
    {
        "StopName": "地政所",
        "Lon": 121.012899,
        "Lat": 24.833133,
        "BusType": 1,
        "RouteName": "61",
        "Direction": 0,
        "StopSequence": 51
    },
    {
        "StopName": "市場前",
        "Lon": 121.0146097,
        "Lat": 24.8341029,
        "BusType": 1,
        "RouteName": "61",
        "Direction": 0,
        "StopSequence": 52
    },
    {
        "StopName": "天后宮",
        "Lon": 121.01159,
        "Lat": 24.83555,
        "BusType": 1,
        "RouteName": "61",
        "Direction": 0,
        "StopSequence": 53
    },
    {
        "StopName": "中泰路口",
        "Lon": 121.005513,
        "Lat": 24.840594,
        "BusType": 1,
        "RouteName": "61",
        "Direction": 0,
        "StopSequence": 54
    },
    {
        "StopName": "華興街口",
        "Lon": 121.0048115,
        "Lat": 24.84223,
        "BusType": 1,
        "RouteName": "61",
        "Direction": 0,
        "StopSequence": 55
    },
    {
        "StopName": "公園大郡",
        "Lon": 121.00246,
        "Lat": 24.84342,
        "BusType": 1,
        "RouteName": "61",
        "Direction": 0,
        "StopSequence": 56
    },
    {
        "StopName": "兒15公園",
        "Lon": 120.99972,
        "Lat": 24.84405,
        "BusType": 1,
        "RouteName": "61",
        "Direction": 0,
        "StopSequence": 57
    },
    {
        "StopName": "新民街",
        "Lon": 120.99668,
        "Lat": 24.84438,
        "BusType": 1,
        "RouteName": "61",
        "Direction": 0,
        "StopSequence": 58
    },
    {
        "StopName": "新社",
        "Lon": 120.998307,
        "Lat": 24.842022,
        "BusType": 1,
        "RouteName": "61",
        "Direction": 0,
        "StopSequence": 59
    },
    {
        "StopName": "竹北國中",
        "Lon": 121.0002847,
        "Lat": 24.84093407,
        "BusType": 1,
        "RouteName": "61",
        "Direction": 0,
        "StopSequence": 60
    },
    {
        "StopName": "市公所",
        "Lon": 121.004356,
        "Lat": 24.83911227,
        "BusType": 1,
        "RouteName": "61",
        "Direction": 0,
        "StopSequence": 61
    },
    {
        "StopName": "竹北口",
        "Lon": 121.0051,
        "Lat": 24.83801,
        "BusType": 1,
        "RouteName": "61",
        "Direction": 0,
        "StopSequence": 62
    },
    {
        "StopName": "水利大樓",
        "Lon": 121.004474,
        "Lat": 24.834571,
        "BusType": 1,
        "RouteName": "61",
        "Direction": 0,
        "StopSequence": 63
    },
    {
        "StopName": "博愛國小",
        "Lon": 121.005079,
        "Lat": 24.829762,
        "BusType": 1,
        "RouteName": "61",
        "Direction": 0,
        "StopSequence": 64
    },
    {
        "StopName": "家樂福",
        "Lon": 121.0088318,
        "Lat": 24.8279336,
        "BusType": 1,
        "RouteName": "61",
        "Direction": 0,
        "StopSequence": 65
    },
    {
        "StopName": "家樂福",
        "Lon": 121.0088318,
        "Lat": 24.8279336,
        "BusType": 1,
        "RouteName": "61支線A",
        "Direction": 0,
        "StopSequence": 1
    },
    {
        "StopName": "文化中心",
        "Lon": 121.0116387,
        "Lat": 24.83020958,
        "BusType": 1,
        "RouteName": "61支線A",
        "Direction": 0,
        "StopSequence": 2
    },
    {
        "StopName": "縣政府",
        "Lon": 121.0116684,
        "Lat": 24.82598852,
        "BusType": 1,
        "RouteName": "61支線A",
        "Direction": 0,
        "StopSequence": 3
    },
    {
        "StopName": "東元醫院",
        "Lon": 121.012698,
        "Lat": 24.82352697,
        "BusType": 1,
        "RouteName": "61支線A",
        "Direction": 0,
        "StopSequence": 4
    },
    {
        "StopName": "泉州厝",
        "Lon": 121.0138224,
        "Lat": 24.82113566,
        "BusType": 1,
        "RouteName": "61支線A",
        "Direction": 0,
        "StopSequence": 5
    },
    {
        "StopName": "上泉州厝",
        "Lon": 121.01742,
        "Lat": 24.81976,
        "BusType": 1,
        "RouteName": "61支線A",
        "Direction": 0,
        "StopSequence": 6
    },
    {
        "StopName": "縣體育館",
        "Lon": 121.01937,
        "Lat": 24.81927,
        "BusType": 1,
        "RouteName": "61支線A",
        "Direction": 0,
        "StopSequence": 7
    },
    {
        "StopName": "上鹿場",
        "Lon": 121.023372,
        "Lat": 24.81804314,
        "BusType": 1,
        "RouteName": "61支線A",
        "Direction": 0,
        "StopSequence": 8
    },
    {
        "StopName": "六家農會",
        "Lon": 121.0281584,
        "Lat": 24.81768914,
        "BusType": 1,
        "RouteName": "61支線A",
        "Direction": 0,
        "StopSequence": 9
    },
    {
        "StopName": "六家",
        "Lon": 121.0263517,
        "Lat": 24.81616914,
        "BusType": 1,
        "RouteName": "61支線A",
        "Direction": 0,
        "StopSequence": 10
    },
    {
        "StopName": "嘉豐一街",
        "Lon": 121.0279851,
        "Lat": 24.81492045,
        "BusType": 1,
        "RouteName": "61支線A",
        "Direction": 0,
        "StopSequence": 11
    },
    {
        "StopName": "客家園區",
        "Lon": 121.027769,
        "Lat": 24.811559,
        "BusType": 1,
        "RouteName": "61支線A",
        "Direction": 0,
        "StopSequence": 12
    },
    {
        "StopName": "嘉政一街",
        "Lon": 121.026572,
        "Lat": 24.80875453,
        "BusType": 1,
        "RouteName": "61支線A",
        "Direction": 0,
        "StopSequence": 13
    },
    {
        "StopName": "六家五路",
        "Lon": 121.0292378,
        "Lat": 24.80736922,
        "BusType": 1,
        "RouteName": "61支線A",
        "Direction": 0,
        "StopSequence": 14
    },
    {
        "StopName": "東興國小",
        "Lon": 121.0331978,
        "Lat": 24.805428,
        "BusType": 1,
        "RouteName": "61支線A",
        "Direction": 0,
        "StopSequence": 15
    },
    {
        "StopName": "水圳公園",
        "Lon": 121.0361385,
        "Lat": 24.80919722,
        "BusType": 1,
        "RouteName": "61支線A",
        "Direction": 0,
        "StopSequence": 16
    },
    {
        "StopName": "六家高鐵站",
        "Lon": 121.0405616,
        "Lat": 24.80718757,
        "BusType": 1,
        "RouteName": "61支線A",
        "Direction": 0,
        "StopSequence": 17
    },
    {
        "StopName": "台大生醫",
        "Lon": 121.0440337,
        "Lat": 24.80561717,
        "BusType": 1,
        "RouteName": "61支線A",
        "Direction": 0,
        "StopSequence": 18
    },
    {
        "StopName": "高鐵八路",
        "Lon": 121.04067,
        "Lat": 24.80316,
        "BusType": 1,
        "RouteName": "61支線A",
        "Direction": 0,
        "StopSequence": 19
    },
    {
        "StopName": "隘口三街",
        "Lon": 121.0429968,
        "Lat": 24.80108078,
        "BusType": 1,
        "RouteName": "61支線A",
        "Direction": 0,
        "StopSequence": 20
    },
    {
        "StopName": "興隆",
        "Lon": 121.04265,
        "Lat": 24.80017,
        "BusType": 1,
        "RouteName": "61支線A",
        "Direction": 0,
        "StopSequence": 21
    },
    {
        "StopName": "隘口",
        "Lon": 121.04836,
        "Lat": 24.79762,
        "BusType": 1,
        "RouteName": "61支線A",
        "Direction": 0,
        "StopSequence": 22
    },
    {
        "StopName": "堤頂",
        "Lon": 121.053169,
        "Lat": 24.79311539,
        "BusType": 1,
        "RouteName": "61支線A",
        "Direction": 0,
        "StopSequence": 23
    },
    {
        "StopName": "國產實業",
        "Lon": 121.05657,
        "Lat": 24.79231,
        "BusType": 1,
        "RouteName": "61支線A",
        "Direction": 0,
        "StopSequence": 24
    },
    {
        "StopName": "東海里",
        "Lon": 121.0582,
        "Lat": 24.79324,
        "BusType": 1,
        "RouteName": "61支線A",
        "Direction": 0,
        "StopSequence": 25
    },
    {
        "StopName": "三崁店",
        "Lon": 121.05676,
        "Lat": 24.79477,
        "BusType": 1,
        "RouteName": "61支線A",
        "Direction": 0,
        "StopSequence": 26
    },
    {
        "StopName": "東光",
        "Lon": 121.05489,
        "Lat": 24.79752,
        "BusType": 1,
        "RouteName": "61支線A",
        "Direction": 0,
        "StopSequence": 27
    },
    {
        "StopName": "東平",
        "Lon": 121.0525325,
        "Lat": 24.80053357,
        "BusType": 1,
        "RouteName": "61支線A",
        "Direction": 0,
        "StopSequence": 28
    },
    {
        "StopName": "東海",
        "Lon": 121.0511361,
        "Lat": 24.80292975,
        "BusType": 1,
        "RouteName": "61支線A",
        "Direction": 0,
        "StopSequence": 29
    },
    {
        "StopName": "東海國小",
        "Lon": 121.0496789,
        "Lat": 24.8053531,
        "BusType": 1,
        "RouteName": "61支線A",
        "Direction": 0,
        "StopSequence": 30
    },
    {
        "StopName": "東興",
        "Lon": 121.04785,
        "Lat": 24.80802,
        "BusType": 1,
        "RouteName": "61支線A",
        "Direction": 0,
        "StopSequence": 31
    },
    {
        "StopName": "下東興",
        "Lon": 121.04544,
        "Lat": 24.80965,
        "BusType": 1,
        "RouteName": "61支線A",
        "Direction": 0,
        "StopSequence": 32
    },
    {
        "StopName": "米崙",
        "Lon": 121.04089,
        "Lat": 24.81276,
        "BusType": 1,
        "RouteName": "61支線A",
        "Direction": 0,
        "StopSequence": 33
    },
    {
        "StopName": "上十興",
        "Lon": 121.0380602,
        "Lat": 24.81400461,
        "BusType": 1,
        "RouteName": "61支線A",
        "Direction": 0,
        "StopSequence": 34
    },
    {
        "StopName": "十興",
        "Lon": 121.03536,
        "Lat": 24.81494,
        "BusType": 1,
        "RouteName": "61支線A",
        "Direction": 0,
        "StopSequence": 35
    },